     3.02           OBSERVATION DATA    M: Mixed            RINEX VERSION / TYPE
CHC                 CHC                 20230908 014840 UTC PGM / RUN BY / DATE 
1000                                                        MARKER NAME         
1000                                                        MARKER NUMBER       
ls7                 ls7                                     OBSERVER / AGENCY   
3487421             PrinCe i50          1.2.1               REC # / TYPE / VERS 
3487421             CHCI50                                  ANT # / TYPE        
   451899.9923  3645384.8740  5196803.8340                  APPROX POSITION XYZ 
        1.5040        0.0000        0.0000                  ANTENNA: DELTA H/E/N
HUACE ANT PHASECENTER                                       COMMENT             
G   24 C1C L1C D1C S1C C2P L2P D2P S2P C2D L2D D2D S2D C2X  SYS / # / OBS TYPES 
       L2X D2X S2X C5I L5I D5I S5I C5Q L5Q D5Q S5Q          SYS / # / OBS TYPES 
R   12 C1C L1C D1C S1C C2C L2C D2C S2C C2P L2P D2P S2P      SYS / # / OBS TYPES 
E   12 C1X L1X D1X S1X C5X L5X D5X S5X C7X L7X D7X S7X      SYS / # / OBS TYPES 
C   24 C1I L1I D1I S1I C1Q L1Q D1Q S1Q C7I L7I D7I S7I C7Q  SYS / # / OBS TYPES 
       L7Q D7Q S7Q C6I L6I D6I S6I C6Q L6Q D6Q S6Q          SYS / # / OBS TYPES 
     1.000                                                  INTERVAL            
  2023     9     8     1    50   12.0000000     GPS         TIME OF FIRST OBS   
G                                                           SYS / PHASE SHIFT   
R                                                           SYS / PHASE SHIFT   
E                                                           SYS / PHASE SHIFT   
C                                                           SYS / PHASE SHIFT   
 C1C    0.000 C1P    0.000 C2C    0.000 C2P    0.000        GLONASS COD/PHS/BIS 
                                                            END OF HEADER       
> 2023  9  8  1 50 12.0000000  0 25
G05  20426924.748   107344214.016        1143.517          49.750           0.000           0.000           0.000           0.000    20426923.118    83644835.514         891.072          49.250           0.000           0.000           0.000           0.000           0.000           0.000           0.000           0.000           0.000           0.000           0.000           0.000  
G11  22278140.148   117072415.985       -2621.450          45.750           0.000           0.000           0.000           0.000    22278140.695    91225260.448       -2042.756          42.000           0.000           0.000           0.000           0.000           0.000           0.000           0.000           0.000           0.000           0.000           0.000           0.000  
G18  24429573.973   128378279.410        3433.967          41.000           0.000           0.000           0.000           0.000    24429565.818   100035002.025        2675.937          40.000           0.000           0.000           0.000           0.000           0.000           0.000           0.000           0.000    24429574.287    95866896.937        2564.131          45.000  
G20  20800350.442   109306576.241       -1247.566          46.250           0.000           0.000           0.000           0.000    20800349.577    85173955.024        -972.135          43.000           0.000           0.000           0.000           0.000           0.000           0.000           0.000           0.000           0.000           0.000           0.000           0.000  
G25  23298419.416   122434023.478       -3223.192          43.000           0.000           0.000           0.000           0.000    23298421.537    95403145.281       -2512.556          43.750           0.000           0.000           0.000           0.000           0.000           0.000           0.000           0.000    23298418.356    91427997.702       -2407.371          48.250  
G29  20779408.718   109196531.940        1217.635          48.500           0.000           0.000           0.000           0.000    20779406.611    85088192.458         948.734          48.250           0.000           0.000           0.000           0.000           0.000           0.000           0.000           0.000           0.000           0.000           0.000           0.000  
E02  27749449.397   145824342.321       -3152.532          43.250    27749451.062   108894808.109       -2354.828          44.750    27749450.719   111735537.855       -2416.204          43.250  
E04         0.000           0.000           0.000           0.000    26850142.780          -0.000           0.000          28.500    26850140.827          -0.000           0.000          29.250  
E05  27418273.858   144084014.055        3234.059          39.500    27418277.822   107595211.203        2415.208          45.500    27418277.393   110402040.456        2478.302          45.750  
E09  25650481.038   134794188.960        1518.166          44.750    25650480.495   100657995.555        1133.620          48.250    25650480.464   103283853.959        1163.304          48.500  
E15  27267477.087   143291557.858        2710.709          40.000    27267478.511   107003443.479        2024.331          42.250    27267478.357   109794835.304        2077.066          41.250  
E27  26346347.121   138450989.115        1068.259          38.750    26346345.792   103388719.602         797.813          42.750    26346345.883   106085817.322         818.339          42.250  
E30  25641257.335   134745712.366       -1722.859          43.750    25641256.088   100621796.965       -1286.515          47.250    25641256.252   103246714.084       -1320.153          47.500  
C02  38886648.212   202492982.636         147.132          41.250           0.000           0.000           0.000           0.000    38886630.009   156580344.433         114.399          47.000           0.000           0.000           0.000           0.000    38886633.983   164542074.854         120.034          44.000           0.000           0.000           0.000           0.000  
C03  39056660.813   203378284.363         121.081          43.500           0.000           0.000           0.000           0.000    39056644.471   157264922.116          93.533          45.000           0.000           0.000           0.000           0.000    39056646.520   165261453.628          98.263          44.000           0.000           0.000           0.000           0.000  
C05  39389864.194   205113353.964         155.072          41.250           0.000           0.000           0.000           0.000    39389847.693   158606590.811         119.238          45.500           0.000           0.000           0.000           0.000    39389850.216   166671347.153         125.588          44.500           0.000           0.000           0.000           0.000  
C07  40379210.746   210265149.278       -1489.776          42.250           0.000           0.000           0.000           0.000    40379195.424   162590288.637       -1151.805          40.250           0.000           0.000           0.000           0.000    40379194.110   170857583.220       -1211.018          40.250           0.000           0.000           0.000           0.000  
C08  35781495.849   186323639.054          12.641          45.500           0.000           0.000           0.000           0.000    35781476.365   144077178.673           9.614          48.750           0.000           0.000           0.000           0.000    35781476.934   151403140.224          10.460          47.750           0.000           0.000           0.000           0.000  
C10  39105360.071   203631865.608       -1445.642          41.250           0.000           0.000           0.000           0.000    39105346.195   157461022.765       -1117.266          46.000           0.000           0.000           0.000           0.000    39105344.812   165467509.875       -1174.417          44.250           0.000           0.000           0.000           0.000  
C11  22234539.274   115781081.280        1830.598          48.000           0.000           0.000           0.000           0.000    22234522.935    89529209.321        1415.231          52.500           0.000           0.000           0.000           0.000    22234522.878    94081543.008        1487.519          52.250           0.000           0.000           0.000           0.000  
C12  21780585.610   113417226.044       -1258.335          47.500           0.000           0.000           0.000           0.000    21780569.608    87701328.224        -973.332          52.250           0.000           0.000           0.000           0.000    21780570.111    92160719.563       -1022.481          52.250           0.000           0.000           0.000           0.000  
C13  35948623.400   187193917.551         298.598          49.000           0.000           0.000           0.000           0.000    35948611.589   144750162.358         231.080          49.000           0.000           0.000           0.000           0.000    35948611.269   152110337.336         242.650          49.500           0.000           0.000           0.000           0.000  
C21  23290073.198   121277523.520        2384.490          50.500           0.000           0.000           0.000           0.000           0.000           0.000           0.000           0.000           0.000           0.000           0.000           0.000    23290055.801    98547846.214        1937.443          52.000           0.000           0.000           0.000           0.000  
C22  23051609.960   120035785.553        -840.083          47.000           0.000           0.000           0.000           0.000           0.000           0.000           0.000           0.000           0.000           0.000           0.000           0.000    23051591.642    97538827.822        -682.595          49.250           0.000           0.000           0.000           0.000  
C34  21576922.301   112356705.445         529.916          51.000           0.000           0.000           0.000           0.000           0.000           0.000           0.000           0.000           0.000           0.000           0.000           0.000    21576909.398    91298965.167         430.472          52.500           0.000           0.000           0.000           0.000  
> 2023  9  8  1 50 13.0000000  0 25
G05  20426706.574   107343067.504        1141.287          49.500           0.000           0.000           0.000           0.000    20426704.905    83643942.118         889.513          49.250           0.000           0.000           0.000           0.000           0.000           0.000           0.000           0.000           0.000           0.000           0.000           0.000  
G11  22278638.524   117075034.894       -2621.550          45.000           0.000           0.000           0.000           0.000    22278638.986    91227301.096       -2042.795          41.500           0.000           0.000           0.000           0.000           0.000           0.000           0.000           0.000           0.000           0.000           0.000           0.000  
G18  24428920.448   128374845.034        3432.441          42.750           0.000           0.000           0.000           0.000    24428918.162   100032325.959        2674.216          43.000           0.000           0.000           0.000           0.000           0.000           0.000           0.000           0.000    24428920.732    95864332.323        2563.070          47.000  
G20  20800587.288   109307820.773       -1248.941          45.750           0.000           0.000           0.000           0.000    20800586.393    85174924.786        -973.203          42.500           0.000           0.000           0.000           0.000           0.000           0.000           0.000           0.000           0.000           0.000           0.000           0.000  
G25  23299032.623   122437245.979       -3225.192          42.250           0.000           0.000           0.000           0.000    23299034.636    95405656.297       -2513.528          44.500           0.000           0.000           0.000           0.000           0.000           0.000           0.000           0.000    23299031.564    91430404.120       -2408.930          48.250  
G29  20779176.426   109195311.344        1215.277          49.000           0.000           0.000           0.000           0.000    20779174.325    85087241.343         946.901          49.250           0.000           0.000           0.000           0.000           0.000           0.000           0.000           0.000           0.000           0.000           0.000           0.000  
E02  27750049.285   145827494.675       -3154.153          43.000    27750050.930   108897162.095       -2355.844          44.500    27750050.585   111737953.265       -2417.316          43.000  
E04         0.000           0.000           0.000           0.000    26850359.850          -0.000           0.000          27.000    26850358.446          -0.000           0.000          26.500  
E05  27417658.165   144080778.736        3232.902          39.500    27417662.140   107592795.173        2414.705          44.000    27417661.699   110399561.402        2478.062          44.500  
E09  25650191.711   134792668.491        1518.182          43.500    25650191.148   100656860.112        1133.385          47.750    25650191.141   103282688.925        1163.165          48.000  
E15  27266961.288   143288846.402        2709.251          42.000    27266962.524   107001418.708        2022.694          44.500    27266962.344   109792757.689        2075.635          44.250  
E27  26346143.437   138449919.630        1066.403          40.250    26346142.227   103387920.964         796.366          44.500    26346142.312   106084997.844         816.903          43.750  
E30  25641584.887   134747433.712       -1725.229          45.250    25641583.652   100623082.385       -1288.225          49.000    25641583.824   103248033.040       -1321.874          49.000  
C02  38886619.455   202492833.072         145.952          41.000           0.000           0.000           0.000           0.000    38886601.318   156580228.782         112.996          46.500           0.000           0.000           0.000           0.000    38886605.248   164541953.327         118.905          44.000           0.000           0.000           0.000           0.000  
C03  39056637.277   203378161.685         120.309          43.000           0.000           0.000           0.000           0.000    39056620.928   157264827.251          92.438          43.250           0.000           0.000           0.000           0.000    39056622.949   165261353.919          97.570          42.500           0.000           0.000           0.000           0.000  
C05  39389834.232   205113197.995         153.234          41.250           0.000           0.000           0.000           0.000    39389817.704   158606470.172         118.025          45.500           0.000           0.000           0.000           0.000    39389820.264   166671220.374         124.242          44.750           0.000           0.000           0.000           0.000  
C07  40379496.686   210266638.090       -1490.558          41.500           0.000           0.000           0.000           0.000    40379481.402   162591439.879       -1152.688          39.500           0.000           0.000           0.000           0.000    40379480.039   170858793.040       -1211.403          39.750           0.000           0.000           0.000           0.000  
C08  35781492.726   186323622.838          11.149          46.000           0.000           0.000           0.000           0.000    35781473.243   144077166.118           8.211          48.500           0.000           0.000           0.000           0.000    35781473.825   151403127.041           9.214          48.000           0.000           0.000           0.000           0.000  
C10  39105637.330   203633309.354       -1446.900          40.500           0.000           0.000           0.000           0.000    39105623.469   157462139.136       -1118.596          44.500           0.000           0.000           0.000           0.000    39105622.067   165468683.006       -1175.210          43.750           0.000           0.000           0.000           0.000  
C11  22234187.254   115779248.253        1828.407          48.750           0.000           0.000           0.000           0.000    22234170.928    89527791.919        1413.605          53.250           0.000           0.000           0.000           0.000    22234170.860    94080053.515        1485.670          53.000           0.000           0.000           0.000           0.000  
C12  21780826.645   113418481.198       -1260.548          47.000           0.000           0.000           0.000           0.000    21780810.639    87702298.771        -975.008          51.750           0.000           0.000           0.000           0.000    21780811.141    92161739.440       -1023.403          52.000           0.000           0.000           0.000           0.000  
C13  35948565.360   187193615.365         296.681          49.500           0.000           0.000           0.000           0.000    35948553.560   144749928.695         229.555          49.250           0.000           0.000           0.000           0.000    35948553.233   152110091.788         241.270          49.750           0.000           0.000           0.000           0.000  
C21  23289614.820   121275136.604        2382.580          49.750           0.000           0.000           0.000           0.000           0.000           0.000           0.000           0.000           0.000           0.000           0.000           0.000    23289597.416    98545906.633        1936.158          51.250           0.000           0.000           0.000           0.000  
C22  23051770.806   120036623.042        -841.168          45.750           0.000           0.000           0.000           0.000           0.000           0.000           0.000           0.000           0.000           0.000           0.000           0.000    23051752.487    97539508.325        -683.304          49.000           0.000           0.000           0.000           0.000  
C34  21576819.890   112356172.172         527.860          51.500           0.000           0.000           0.000           0.000           0.000           0.000           0.000           0.000           0.000           0.000           0.000           0.000    21576806.994    91298531.844         428.902          53.250           0.000           0.000           0.000           0.000  
> 2023  9  8  1 50 14.0000000  0 25
G05  20426488.629   107341922.122        1141.064          49.750           0.000           0.000           0.000           0.000    20426486.942    83643049.615         889.117          49.250           0.000           0.000           0.000           0.000           0.000           0.000           0.000           0.000           0.000           0.000           0.000           0.000  
G11  22279137.036   117077654.542       -2623.031          45.750           0.000           0.000           0.000           0.000    22279137.458    91229342.422       -2044.002          41.750           0.000           0.000           0.000           0.000           0.000           0.000           0.000           0.000           0.000           0.000           0.000           0.000  
G18  24428267.036   128371411.213        3432.771          43.500           0.000           0.000           0.000           0.000    24428265.420   100029650.229        2674.691          42.000           0.000           0.000           0.000           0.000           0.000           0.000           0.000           0.000    24428267.290    95861768.081        2563.640          46.000  
G20  20800824.315   109309066.326       -1249.634          46.250           0.000           0.000           0.000           0.000    20800823.426    85175895.357        -973.745          42.500           0.000           0.000           0.000           0.000           0.000           0.000           0.000           0.000           0.000           0.000           0.000           0.000  
G25  23299645.957   122440469.314       -3225.137          42.000           0.000           0.000           0.000           0.000    23299647.954    95408167.949       -2513.562          44.000           0.000           0.000           0.000           0.000           0.000           0.000           0.000           0.000    23299644.915    91432811.087       -2408.695          48.500  
G29  20778944.359   109194091.856        1215.355          49.250           0.000           0.000           0.000           0.000    20778942.246    85086291.079         946.818          48.500           0.000           0.000           0.000           0.000           0.000           0.000           0.000           0.000           0.000           0.000           0.000           0.000  
E02  27750649.257   145830647.370       -3153.416          43.250    27750650.910   108899516.405       -2355.319          45.000    27750650.555   111740368.992       -2416.998          43.750  
E04         0.000           0.000           0.000           0.000    26850573.502          -0.000           0.000          30.750    26850573.325   108116135.113        -872.984          33.000  
E05  27417042.680   144077543.765        3232.589          39.500    27417046.558   107590379.517        2414.353          44.500    27417046.126   110397082.729        2477.218          44.500  
E09  25649902.537   134791148.878        1516.377          44.250    25649901.980   100655725.339        1132.402          48.500    25649901.998   103281524.566        1161.840          48.750  
E15  27266445.627   143286135.500        2709.815          42.000    27266446.632   106999394.330        2023.644          43.250    27266446.475   109790680.518        2076.306          42.250  
E27  26345939.886   138448851.118        1066.208          39.250    26345938.861   103387123.058         795.969          44.000    26345938.940   106084179.109         816.808          43.250  
E30  25641912.605   134749155.936       -1724.642          44.750    25641911.389   100624368.473       -1288.057          47.750    25641911.560   103249352.662       -1321.527          48.250  
C02  38886590.788   202492683.874         146.673          41.250           0.000           0.000           0.000           0.000    38886572.699   156580113.447         113.343          46.500           0.000           0.000           0.000           0.000    38886576.610   164541832.108         119.352          43.750           0.000           0.000           0.000           0.000  
C03  39056613.792   203378039.375         119.946          43.250           0.000           0.000           0.000           0.000    39056597.415   157264732.660          92.896          44.000           0.000           0.000           0.000           0.000    39056599.439   165261254.547          97.476          43.000           0.000           0.000           0.000           0.000  
C05  39389804.335   205113042.408         154.239          41.000           0.000           0.000           0.000           0.000    39389787.807   158606349.881         118.483          45.500           0.000           0.000           0.000           0.000    39389790.395   166671093.950         124.722          45.000           0.000           0.000           0.000           0.000  
C07  40379782.651   210268127.303       -1490.687          41.250           0.000           0.000           0.000           0.000    40379767.493   162592591.516       -1153.342          39.750           0.000           0.000           0.000           0.000    40379766.011   170860003.175       -1211.627          39.250           0.000           0.000           0.000           0.000  
C08  35781489.734   186323607.206          11.300          46.000           0.000           0.000           0.000           0.000    35781470.243   144077154.031           8.619          48.500           0.000           0.000           0.000           0.000    35781470.822   151403114.328           9.466          48.000           0.000           0.000           0.000           0.000  
C10  39105914.651   203634753.501       -1446.743          40.250           0.000           0.000           0.000           0.000    39105900.799   157463255.858       -1118.160          44.500           0.000           0.000           0.000           0.000    39105899.434   165469856.499       -1175.199          44.250           0.000           0.000           0.000           0.000  
C11  22233835.397   115777416.074        1828.787          49.000           0.000           0.000           0.000           0.000    22233819.075    89526375.135        1414.024          53.250           0.000           0.000           0.000           0.000    22233819.004    94078564.712        1485.988          52.750           0.000           0.000           0.000           0.000  
C12  21781067.826   113419737.145       -1260.235          47.250           0.000           0.000           0.000           0.000    21781051.827    87703269.959        -974.701          52.000           0.000           0.000           0.000           0.000    21781052.345    92162760.025       -1024.023          52.250           0.000           0.000           0.000           0.000  
C13  35948507.453   187193313.768         297.318          49.500           0.000           0.000           0.000           0.000    35948495.640   144749695.469         230.175          49.000           0.000           0.000           0.000           0.000    35948495.310   152109846.710         241.605          49.750           0.000           0.000           0.000           0.000  
C21  23289156.604   121272750.557        2382.619          49.750           0.000           0.000           0.000           0.000           0.000           0.000           0.000           0.000           0.000           0.000           0.000           0.000    23289139.212    98543967.793        1935.638          51.250           0.000           0.000           0.000           0.000  
C22  23051931.822   120037461.484        -842.129          47.000           0.000           0.000           0.000           0.000           0.000           0.000           0.000           0.000           0.000           0.000           0.000           0.000    23051913.527    97540189.662        -684.333          49.500           0.000           0.000           0.000           0.000  
C34  21576717.662   112355639.857         528.033          51.500           0.000           0.000           0.000           0.000           0.000           0.000           0.000           0.000           0.000           0.000           0.000           0.000    21576704.774    91298099.285         428.834          53.000           0.000           0.000           0.000           0.000  
> 2023  9  8  1 50 15.0000000  0 25
G05  20426270.787   107340777.267        1141.360          50.000           0.000           0.000           0.000           0.000    20426269.098    83642157.527         889.128          49.000           0.000           0.000           0.000           0.000           0.000           0.000           0.000           0.000           0.000           0.000           0.000           0.000  
G11  22279635.625   117080274.641       -2622.360          46.750           0.000           0.000           0.000           0.000    22279636.059    91231384.055       -2043.493          42.500           0.000           0.000           0.000           0.000           0.000           0.000           0.000           0.000           0.000           0.000           0.000           0.000  
G18  24427613.572   128367977.113        3432.553          42.000           0.000           0.000           0.000           0.000    24427612.265   100026974.358        2674.685          39.750           0.000           0.000           0.000           0.000           0.000           0.000           0.000           0.000    24427613.803    95859203.714        2563.271          45.000  
G20  20801061.460   109310312.508       -1249.293          46.500           0.000           0.000           0.000           0.000    20801060.586    85176866.401        -973.482          43.000           0.000           0.000           0.000           0.000           0.000           0.000           0.000           0.000           0.000           0.000           0.000           0.000  
G25  23300259.269   122443692.497       -3225.192          42.500           0.000           0.000           0.000           0.000    23300261.283    95410679.522       -2513.120          43.500           0.000           0.000           0.000           0.000           0.000           0.000           0.000           0.000    23300258.246    91435217.999       -2408.639          48.500  
G29  20778712.353   109192872.703        1215.149          48.750           0.000           0.000           0.000           0.000    20778710.207    85085341.094         946.723          47.750           0.000           0.000           0.000           0.000           0.000           0.000           0.000           0.000           0.000           0.000           0.000           0.000  
E02  27751249.167   145833799.884       -3153.516          41.500    27751250.821   108901870.547       -2355.247          44.250    27751250.463   111742784.538       -2416.785          42.750  
E04         0.000           0.000           0.000           0.000    26850789.072   105368265.100        -850.946          34.000    26850789.320   108117006.002        -872.140          34.750  
E05  27416427.257   144074308.968        3233.265          40.000    27416430.997   107587963.917        2414.777          46.250    27416430.571   110394604.126        2477.749          45.750  
E09  25649613.502   134789629.927        1516.959          45.000    25649612.949   100654591.090        1132.447          49.250    25649612.971   103280360.701        1162.131          49.500  
E15  27265929.808   143283424.311        2709.295          40.750    27265930.725   106997369.746        2023.454          42.500    27265930.572   109788603.155        2076.094          41.000  
E27  26345736.650   138447782.911        1065.643          38.250    26345735.543   103386325.338         795.651          42.750    26345735.644   106083360.603         816.249          42.500  
E30  25642240.359   134750878.223       -1724.994          43.250    25642239.121   100625654.601       -1288.247          46.250    25642239.302   103250672.368       -1321.941          46.750  
C02  38886562.092   202492534.573         147.037          41.000           0.000           0.000           0.000           0.000    38886544.026   156579997.987         113.622          46.000           0.000           0.000           0.000           0.000    38886547.939   164541710.790         119.274          43.750           0.000           0.000           0.000           0.000  
C03  39056590.308   203377917.107         120.980          43.250           0.000           0.000           0.000           0.000    39056573.948   157264638.133          93.192          45.000           0.000           0.000           0.000           0.000    39056575.956   165261155.190          97.895          43.500           0.000           0.000           0.000           0.000  
C05  39389774.399   205112886.579         153.926          40.500           0.000           0.000           0.000           0.000    39389757.869   158606229.324         118.835          45.500           0.000           0.000           0.000           0.000    39389760.463   166670967.306         124.862          44.250           0.000           0.000           0.000           0.000  
C07  40380068.577   210269616.526       -1490.212          42.000           0.000           0.000           0.000           0.000    40380053.521   162593743.064       -1152.995          41.000           0.000           0.000           0.000           0.000    40380051.973   170861213.277       -1211.046          39.000           0.000           0.000           0.000           0.000  
C08  35781486.740   186323591.588          11.803          45.500           0.000           0.000           0.000           0.000    35781467.239   144077141.959           8.915          48.500           0.000           0.000           0.000           0.000    35781467.825   151403101.632           9.834          47.750           0.000           0.000           0.000           0.000  
C10  39106191.980   203636197.583       -1446.050          40.000           0.000           0.000           0.000           0.000    39106178.138   157464372.559       -1118.177          44.250           0.000           0.000           0.000           0.000    39106176.787   165471029.973       -1175.104          43.500           0.000           0.000           0.000           0.000  
C11  22233483.554   115775583.970        1828.474          48.500           0.000           0.000           0.000           0.000    22233467.238    89524958.412        1414.013          52.500           0.000           0.000           0.000           0.000    22233467.165    94077075.950        1485.949          52.000           0.000           0.000           0.000           0.000  
C12  21781309.090   113420993.504       -1259.782          47.500           0.000           0.000           0.000           0.000    21781293.089    87704241.449        -974.321          52.250           0.000           0.000           0.000           0.000    21781293.626    92163780.933       -1023.727          52.250           0.000           0.000           0.000           0.000  
C13  35948449.531   187193012.113         297.508          49.000           0.000           0.000           0.000           0.000    35948437.712   144749462.212         230.075          48.750           0.000           0.000           0.000           0.000    35948437.383   152109601.577         242.175          49.250           0.000           0.000           0.000           0.000  
C21  23288698.469   121270364.932        2382.546          50.250           0.000           0.000           0.000           0.000           0.000           0.000           0.000           0.000           0.000           0.000           0.000           0.000    23288681.082    98542029.251        1936.107          52.000           0.000           0.000           0.000           0.000  
C22  23052092.974   120038300.718        -841.877          47.750           0.000           0.000           0.000           0.000           0.000           0.000           0.000           0.000           0.000           0.000           0.000           0.000    23052074.705    97540871.598        -684.126          50.250           0.000           0.000           0.000           0.000  
C34  21576615.484   112355107.799         527.821          50.750           0.000           0.000           0.000           0.000           0.000           0.000           0.000           0.000           0.000           0.000           0.000           0.000    21576602.594    91297666.928         428.974          52.000           0.000           0.000           0.000           0.000  
> 2023  9  8  1 50 16.0000000  0 26
G05  20426053.123   107339633.392        1140.231          49.750           0.000           0.000           0.000           0.000    20426051.439    83641266.199         888.200          49.000           0.000           0.000           0.000           0.000           0.000           0.000           0.000           0.000           0.000           0.000           0.000           0.000  
G11  22280134.395   117082895.680       -2623.606          47.250           0.000           0.000           0.000           0.000    22280134.827    91233426.457       -2044.466          43.000           0.000           0.000           0.000           0.000           0.000           0.000           0.000           0.000           0.000           0.000           0.000           0.000  
G18  24426960.041   128364542.732        3433.319          41.500           0.000           0.000           0.000           0.000    24426959.068   100024298.156        2676.015          38.250           0.000           0.000           0.000           0.000           0.000           0.000           0.000           0.000    24426960.274    95856639.049        2564.098          44.250  
G20  20801298.808   109311559.783       -1250.690          46.750           0.000           0.000           0.000           0.000    20801297.947    85177838.297        -974.566          43.000           0.000           0.000           0.000           0.000           0.000           0.000           0.000           0.000           0.000           0.000           0.000           0.000  
G25  23300872.583   122446915.651       -3224.377          42.000           0.000           0.000           0.000           0.000    23300874.662    95413191.153       -2513.243          43.000           0.000           0.000           0.000           0.000           0.000           0.000           0.000           0.000    23300871.613    91437625.004       -2408.365          47.500  
G29  20778480.472   109191654.194        1214.797          48.250           0.000           0.000           0.000           0.000    20778478.358    85084391.608         946.365          46.750           0.000           0.000           0.000           0.000           0.000           0.000           0.000           0.000           0.000           0.000           0.000           0.000  
E02  27751849.105   145836952.218       -3152.784          42.250    27751850.711   108904224.585       -2354.610          44.000    27751850.335   111745200.024       -2416.109          42.500  
E04         0.000           0.000           0.000           0.000    26851005.437   105369114.718        -852.701          34.500    26851005.857   108117877.694        -873.498          35.500  
E05  27415811.822   144071074.580        3233.086          41.250    27415815.527   107585548.634        2414.671          47.000    27415815.081   110392125.839        2477.609          47.000  
E09  25649324.679   134788112.137        1515.433          45.500    25649324.128   100653457.676        1131.279          49.500    25649324.147   103279197.708        1161.410          49.750  
E15  27265413.851   143280712.775        2710.732          40.250    27265414.762   106995344.887        2023.935          40.750    27265414.583   109786525.414        2077.027          39.750  
E27  26345533.502   138446715.018        1066.096          37.000    26345532.341   103385527.916         795.935          41.250    26345532.437   106082542.355         816.713          41.000  
E30  25642568.153   134752600.637       -1724.726          42.750    25642566.901   100626940.817       -1288.018          45.500    25642567.070   103251992.115       -1321.460          46.000  
C02  38886533.433   202492385.375         146.752          41.000           0.000           0.000           0.000           0.000    38886515.385   156579882.637         114.041          47.250           0.000           0.000           0.000           0.000    38886519.283   164541589.568         119.380          44.000           0.000           0.000           0.000           0.000  
C03  39056566.885   203377795.210         120.393          44.250           0.000           0.000           0.000           0.000    39056550.538   157264543.918          92.667          45.500           0.000           0.000           0.000           0.000    39056552.550   165261056.144          97.844          44.750           0.000           0.000           0.000           0.000  
C05  39389744.406   205112730.494         154.832          40.500           0.000           0.000           0.000           0.000    39389727.927   158606108.700         119.148          45.250           0.000           0.000           0.000           0.000    39389730.508   166670840.512         125.270          44.250           0.000           0.000           0.000           0.000  
C07  40380354.574   210271105.943       -1489.949          43.250           0.000           0.000           0.000           0.000    40380339.580   162594894.818       -1152.302          43.250           0.000           0.000           0.000           0.000    40380338.012   170862423.660       -1211.470          40.500           0.000           0.000           0.000           0.000  
C08  35781483.807   186323576.375          11.406          45.250           0.000           0.000           0.000           0.000    35781464.303   144077130.170           9.150          48.250           0.000           0.000           0.000           0.000    35781464.910   151403089.279           9.315          47.500           0.000           0.000           0.000           0.000  
C10  39106469.354   203637641.998       -1446.386          40.750           0.000           0.000           0.000           0.000    39106455.513   157465489.459       -1117.825          46.000           0.000           0.000           0.000           0.000    39106454.176   165472203.672       -1175.115          44.250           0.000           0.000           0.000           0.000  
C11  22233131.769   115773752.118        1829.044          48.000           0.000           0.000           0.000           0.000    22233115.468    89523541.960        1413.633          51.250           0.000           0.000           0.000           0.000    22233115.388    94075587.431        1486.245          51.000           0.000           0.000           0.000           0.000  
C12  21781550.508   113422250.701       -1260.469          47.750           0.000           0.000           0.000           0.000    21781534.523    87705213.593        -974.796          52.750           0.000           0.000           0.000           0.000    21781535.063    92164802.534       -1024.649          52.250           0.000           0.000           0.000           0.000  
C13  35948391.658   187192710.755         297.989          48.500           0.000           0.000           0.000           0.000    35948379.820   144749229.179         230.488          48.500           0.000           0.000           0.000           0.000    35948379.525   152109356.738         241.661          48.750           0.000           0.000           0.000           0.000  
C21  23288240.477   121267980.045        2382.010          50.750           0.000           0.000           0.000           0.000           0.000           0.000           0.000           0.000           0.000           0.000           0.000           0.000    23288223.105    98540091.363        1935.375          52.500           0.000           0.000           0.000           0.000  
C22  23052254.365   120039141.136        -843.179          48.250           0.000           0.000           0.000           0.000           0.000           0.000           0.000           0.000           0.000           0.000           0.000           0.000    23052236.105    97541554.502        -685.070          50.000           0.000           0.000           0.000           0.000  
C23  25924703.611   134996734.744       -1531.495          39.250           0.000           0.000           0.000           0.000           0.000           0.000           0.000           0.000           0.000           0.000           0.000           0.000    25924683.078   109695817.524       -1244.372          36.750           0.000           0.000           0.000           0.000  
C34  21576513.416   112354576.301         528.033          50.250           0.000           0.000           0.000           0.000           0.000           0.000           0.000           0.000           0.000           0.000           0.000           0.000    21576500.531    91297235.092         428.298          51.250           0.000           0.000           0.000           0.000  
> 2023  9  8  1 50 17.0000000  0 26
G05  20425835.511   107338489.807        1139.974          49.750           0.000           0.000           0.000           0.000    20425833.825    83640375.086         888.373          48.750           0.000           0.000           0.000           0.000           0.000           0.000           0.000           0.000           0.000           0.000           0.000           0.000  
G11  22280633.187   117085516.838       -2623.880          46.500           0.000           0.000           0.000           0.000    22280633.599    91235468.902       -2044.723          42.500           0.000           0.000           0.000           0.000           0.000           0.000           0.000           0.000           0.000           0.000           0.000           0.000  
G18  24426306.462   128361107.998        3433.514          42.250           0.000           0.000           0.000           0.000    24426305.698   100021621.776        2674.803          40.000           0.000           0.000           0.000           0.000           0.000           0.000           0.000           0.000    24426306.697    95854074.167        2563.539          45.000  
G20  20801536.199   109312807.301       -1250.774          46.750           0.000           0.000           0.000           0.000    20801535.346    85178810.386        -974.633          43.000           0.000           0.000           0.000           0.000           0.000           0.000           0.000           0.000           0.000           0.000           0.000           0.000  
G25  23301485.923   122450138.789       -3224.628          42.250           0.000           0.000           0.000           0.000    23301487.996    95415702.691       -2513.143          43.250           0.000           0.000           0.000           0.000           0.000           0.000           0.000           0.000    23301484.969    91440031.915       -2408.645          47.500  
G29  20778248.627   109190435.811        1214.780          48.000           0.000           0.000           0.000           0.000    20778246.536    85083442.240         946.225          47.000           0.000           0.000           0.000           0.000           0.000           0.000           0.000           0.000           0.000           0.000           0.000           0.000  
E02  27752448.977   145840104.318       -3152.890          42.250    27752450.539   108906578.431       -2354.973          44.500    27752450.143   111747615.215       -2416.226          43.750  
E04         0.000           0.000           0.000           0.000    26851225.354   105369975.531        -852.662          31.500    26851225.742   108118758.721        -874.487          33.750  
E05  27415196.336   144067840.149        3232.868          41.000    27415200.041   107583133.333        2414.425          46.500    27415199.577   110389647.506        2477.559          46.750  
E09  25649035.898   134786594.622        1514.908          45.000    25649035.352   100652324.451        1131.452          48.500    25649035.365   103278034.928        1160.896          49.500  
E15  27264897.805   143278000.917        2710.145          40.500    27264898.730   106993319.780        2023.873          41.250    27264898.542   109784447.512        2076.541          40.750  
E27  26345330.370   138445647.213        1065.331          36.500    26345329.149   103384730.530         795.494          41.000    26345329.218   106081724.190         816.176          40.750  
E30  25642895.929   134754323.037       -1724.916          43.250    25642894.657   100628227.038       -1288.331          46.000    25642894.841   103253311.883       -1321.812          46.750  
C02  38886504.724   202492235.912         147.321          41.500           0.000           0.000           0.000           0.000    38886486.692   156579767.061         114.214          48.000           0.000           0.000           0.000           0.000    38886490.573   164541468.100         119.967          44.500           0.000           0.000           0.000           0.000  
C03  39056543.440   203377673.178         120.315          44.000           0.000           0.000           0.000           0.000    39056527.083   157264449.508          93.282          46.000           0.000           0.000           0.000           0.000    39056529.114   165260956.980          97.956          44.500           0.000           0.000           0.000           0.000  
C05  39389714.348   205112574.128         154.720          41.000           0.000           0.000           0.000           0.000    39389697.909   158605987.796         119.266          45.000           0.000           0.000           0.000           0.000    39389700.476   166670713.444         125.611          44.000           0.000           0.000           0.000           0.000  
C07  40380640.588   210272595.274       -1490.318          43.250           0.000           0.000           0.000           0.000    40380625.583   162596046.436       -1152.504          44.000           0.000           0.000           0.000           0.000    40380623.989   170863633.816       -1210.940          42.000           0.000           0.000           0.000           0.000  
C08  35781480.819   186323560.887          12.194          45.500           0.000           0.000           0.000           0.000    35781461.330   144077118.205           9.575          48.750           0.000           0.000           0.000           0.000    35781461.933   151403076.709           9.739          47.500           0.000           0.000           0.000           0.000  
C10  39106746.670   203639086.172       -1445.620          42.000           0.000           0.000           0.000           0.000    39106732.863   157466606.230       -1117.953          46.500           0.000           0.000           0.000           0.000    39106731.527   165473377.240       -1175.076          44.250           0.000           0.000           0.000           0.000  
C11  22232779.962   115771920.156        1828.877          47.750           0.000           0.000           0.000           0.000    22232763.667    89522125.371        1413.923          51.750           0.000           0.000           0.000           0.000    22232763.589    94074098.841        1485.960          51.250           0.000           0.000           0.000           0.000  
C12  21781791.954   113423508.002       -1260.246          48.000           0.000           0.000           0.000           0.000    21781775.980    87706185.821        -974.679          53.000           0.000           0.000           0.000           0.000    21781776.506    92165824.193       -1024.370          52.500           0.000           0.000           0.000           0.000  
C13  35948333.734   187192409.112         298.548          49.000           0.000           0.000           0.000           0.000    35948321.889   144748995.932         231.030          49.000           0.000           0.000           0.000           0.000    35948321.599   152109111.648         242.075          48.750           0.000           0.000           0.000           0.000  
C21  23287782.523   121265595.371        2381.976          51.000           0.000           0.000           0.000           0.000           0.000           0.000           0.000           0.000           0.000           0.000           0.000           0.000    23287765.156    98538153.618        1935.487          52.750           0.000           0.000           0.000           0.000  
C22  23052415.829   120039981.903        -843.447          47.750           0.000           0.000           0.000           0.000           0.000           0.000           0.000           0.000           0.000           0.000           0.000           0.000    23052397.562    97542237.693        -685.417          49.750           0.000           0.000           0.000           0.000  
C23  25924997.606   134998265.482       -1532.484          40.750           0.000           0.000           0.000           0.000           0.000           0.000           0.000           0.000           0.000           0.000           0.000           0.000    25924977.025   109697061.403       -1245.283          38.250           0.000           0.000           0.000           0.000  
C34  21576411.357   112354044.836         528.312          51.000           0.000           0.000           0.000           0.000           0.000           0.000           0.000           0.000           0.000           0.000           0.000           0.000    21576398.475    91296803.240         428.857          52.000           0.000           0.000           0.000           0.000  
> 2023  9  8  1 50 18.0000000  0 26
G05  20425618.030   107337346.915        1139.728          49.750           0.000           0.000           0.000           0.000    20425616.339    83639484.531         888.183          49.000           0.000           0.000           0.000           0.000           0.000           0.000           0.000           0.000           0.000           0.000           0.000           0.000  
G11  22281131.992   117088138.100       -2622.595          46.000           0.000           0.000           0.000           0.000    22281132.402    91237511.466       -2043.717          42.000           0.000           0.000           0.000           0.000           0.000           0.000           0.000           0.000           0.000           0.000           0.000           0.000  
G18  24425652.956   128357673.725        3432.827          41.750           0.000           0.000           0.000           0.000    24425652.363   100018945.677        2674.775          41.500           0.000           0.000           0.000           0.000           0.000           0.000           0.000           0.000    24425653.154    95851509.556        2563.562          46.000  
G20  20801773.703   109314055.309       -1250.416          46.500           0.000           0.000           0.000           0.000    20801772.848    85179782.870        -974.354          43.000           0.000           0.000           0.000           0.000           0.000           0.000           0.000           0.000           0.000           0.000           0.000           0.000  
G25  23302099.401   122453362.556       -3225.567          42.750           0.000           0.000           0.000           0.000    23302101.421    95418214.718       -2513.718          42.750           0.000           0.000           0.000           0.000           0.000           0.000           0.000           0.000    23302098.424    91442439.261       -2408.941          48.000  
G29  20778016.919   109189218.126        1214.534          48.000           0.000           0.000           0.000           0.000    20778014.835    85082493.399         946.253          47.500           0.000           0.000           0.000           0.000           0.000           0.000           0.000           0.000           0.000           0.000           0.000           0.000  
E02  27753048.883   145843256.810       -3153.382          42.250    27753050.442   108908932.527       -2355.023          43.750    27753050.036   111750030.755       -2416.891          42.750  
E04         0.000           0.000           0.000           0.000    26851449.507          -0.000           0.000          30.500    26851447.433          -0.000           0.000          31.000  
E05  27414580.819   144064605.917        3233.243          39.750    27414584.587   107580718.165        2414.693          46.250    27414584.129   110387169.357        2477.688          46.750  
E09  25648747.204   134785077.481        1515.841          44.750    25648746.652   100651191.549        1131.709          48.000    25648746.668   103276872.464        1161.304          48.750  
E15  27264381.790   143275289.435        2710.072          40.250    27264382.739   106991294.976        2023.773          42.000    27264382.545   109782369.854        2076.608          41.750  
E27  26345127.235   138444580.022        1065.453          37.500    26345126.063   103383933.594         795.768          41.250    26345126.135   106080906.468         816.316          41.250  
E30  25643223.818   134756046.111       -1725.340          43.500    25643222.546   100629513.730       -1288.420          47.000    25643222.730   103254632.169       -1322.371          47.250  
C02  38886476.062   202492086.685         146.964          41.750           0.000           0.000           0.000           0.000    38886458.037   156579651.664         114.142          47.500           0.000           0.000           0.000           0.000    38886461.917   164541346.862         119.604          44.500           0.000           0.000           0.000           0.000  
C03  39056520.016   203377551.258         120.639          43.750           0.000           0.000           0.000           0.000    39056503.657   157264355.249          93.405          45.500           0.000           0.000           0.000           0.000    39056505.716   165260857.929          98.241          44.750           0.000           0.000           0.000           0.000  
C05  39389684.346   205112418.097         154.530          41.500           0.000           0.000           0.000           0.000    39389667.925   158605867.153         118.657          44.750           0.000           0.000           0.000           0.000    39389670.506   166670586.649         125.303          43.500           0.000           0.000           0.000           0.000  
C07  40380926.679   210274084.856       -1490.363          42.250           0.000           0.000           0.000           0.000    40380911.612   162597198.265       -1152.381          44.250           0.000           0.000           0.000           0.000    40380910.041   170864844.227       -1211.202          43.000           0.000           0.000           0.000           0.000  
C08  35781477.864   186323545.524          12.602          45.500           0.000           0.000           0.000           0.000    35781458.388   144077106.336           9.563          48.750           0.000           0.000           0.000           0.000    35781458.971   151403064.218          10.164          47.750           0.000           0.000           0.000           0.000  
C10  39107024.095   203640530.726       -1446.078          42.000           0.000           0.000           0.000           0.000    39107010.276   157467723.241       -1118.138          46.000           0.000           0.000           0.000           0.000    39107008.921   165474551.016       -1175.311          44.250           0.000           0.000           0.000           0.000  
C11  22232428.245   115770088.644        1828.826          47.500           0.000           0.000           0.000           0.000    22232411.957    89520709.143        1413.884          52.250           0.000           0.000           0.000           0.000    22232411.865    94072610.591        1486.089          51.500           0.000           0.000           0.000           0.000  
C12  21782033.484   113424765.713       -1260.347          48.000           0.000           0.000           0.000           0.000    21782017.518    87707158.350        -974.651          52.750           0.000           0.000           0.000           0.000    21782018.026    92166846.160       -1024.202          52.250           0.000           0.000           0.000           0.000  
C13  35948275.853   187192107.641         298.693          49.250           0.000           0.000           0.000           0.000    35948263.999   144748762.828         231.119          49.250           0.000           0.000           0.000           0.000    35948263.701   152108866.665         242.466          49.250           0.000           0.000           0.000           0.000  
C21  23287324.677   121263211.249        2381.719          50.750           0.000           0.000           0.000           0.000           0.000           0.000           0.000           0.000           0.000           0.000           0.000           0.000    23287307.314    98536216.328        1935.107          52.500           0.000           0.000           0.000           0.000  
C22  23052577.395   120040823.212        -843.347          47.250           0.000           0.000           0.000           0.000           0.000           0.000           0.000           0.000           0.000           0.000           0.000           0.000    23052559.130    97542921.322        -685.120          49.500           0.000           0.000           0.000           0.000  
C23  25925291.683   134999796.929       -1532.496          42.250           0.000           0.000           0.000           0.000           0.000           0.000           0.000           0.000           0.000           0.000           0.000           0.000    25925271.087   109698305.803       -1245.406          40.250           0.000           0.000           0.000           0.000  
C34  21576309.404   112353513.912         528.089          51.250           0.000           0.000           0.000           0.000           0.000           0.000           0.000           0.000           0.000           0.000           0.000           0.000    21576296.514    91296371.814         428.617          52.500           0.000           0.000           0.000           0.000  
> 2023  9  8  1 50 19.0000000  0 26
G05  20425400.699   107336204.798        1138.337          49.750           0.000           0.000           0.000           0.000    20425399.011    83638594.560         887.038          49.000           0.000           0.000           0.000           0.000           0.000           0.000           0.000           0.000           0.000           0.000           0.000           0.000  
G11  22281630.767   117090759.203       -2623.456          46.500           0.000           0.000           0.000           0.000    22281631.172    91239553.829       -2044.343          42.250           0.000           0.000           0.000           0.000           0.000           0.000           0.000           0.000           0.000           0.000           0.000           0.000  
G18  24424999.589   128354240.150        3432.006          42.250           0.000           0.000           0.000           0.000    24424998.925   100016270.182        2674.384          40.500           0.000           0.000           0.000           0.000           0.000           0.000           0.000           0.000    24424999.760    95848945.567        2562.958          45.000  
G20  20802011.260   109315303.549       -1251.299          46.750           0.000           0.000           0.000           0.000    20802010.380    85180755.506        -975.041          43.250           0.000           0.000           0.000           0.000           0.000           0.000           0.000           0.000           0.000           0.000           0.000           0.000  
G25  23302713.018   122456587.127       -3226.277          42.250           0.000           0.000           0.000           0.000    23302715.030    95420727.351       -2514.473          42.750           0.000           0.000           0.000           0.000           0.000           0.000           0.000           0.000    23302712.031    91444847.184       -2409.824          47.750  
G29  20777785.391   109188001.381        1213.288          48.000           0.000           0.000           0.000           0.000    20777783.297    85081545.268         945.175          47.250           0.000           0.000           0.000           0.000           0.000           0.000           0.000           0.000           0.000           0.000           0.000           0.000  
E02  27753648.833   145846409.609       -3153.840          42.750    27753650.402   108911286.888       -2355.381          43.500    27753649.996   111752446.555       -2417.165          42.500  
E04         0.000           0.000           0.000           0.000    26851668.887   105371716.036        -852.589          32.250    26851665.523          -0.000           0.000          33.000  
E05  27413965.260   144061371.508        3232.734          39.250    27413969.088   107578302.822        2414.582          47.000    27413968.626   110384690.988        2477.749          47.750  
E09  25648458.474   134783560.259        1515.271          45.000    25648457.931   100650058.558        1131.223          48.500    25648457.951   103275709.923        1160.958          49.250  
E15  27263865.898   143272578.641        2708.966          40.500    27263866.859   106989270.716        2022.951          41.750    27263866.707   109780292.818        2075.825          41.250  
E27  26344924.324   138443513.787        1063.704          37.250    26344923.157   103383137.352         794.142          41.000    26344923.231   106080089.442         814.992          40.750  
E30  25643551.904   134757770.236       -1726.894          43.500    25643550.625   100630801.205       -1289.465          46.500    25643550.796   103255953.224       -1323.226          46.750  
C02  38886447.398   202491937.515         147.115          41.750           0.000           0.000           0.000           0.000    38886429.405   156579536.347         113.695          47.500           0.000           0.000           0.000           0.000    38886433.275   164541225.661         119.296          44.000           0.000           0.000           0.000           0.000  
C03  39056496.569   203377429.082         120.594          44.250           0.000           0.000           0.000           0.000    39056480.197   157264260.765          93.399          46.000           0.000           0.000           0.000           0.000    39056482.251   165260758.629          98.191          44.750           0.000           0.000           0.000           0.000  
C05  39389654.429   205112262.433         153.882          40.750           0.000           0.000           0.000           0.000    39389638.016   158605746.743         118.914          45.000           0.000           0.000           0.000           0.000    39389640.593   166670460.160         124.778          43.250           0.000           0.000           0.000           0.000  
C07  40381212.745   210275574.290       -1490.352          42.250           0.000           0.000           0.000           0.000    40381197.596   162598349.978       -1152.476          44.500           0.000           0.000           0.000           0.000    40381196.068   170866054.496       -1211.068          43.250           0.000           0.000           0.000           0.000  
C08  35781474.935   186323530.289          11.848          45.750           0.000           0.000           0.000           0.000    35781455.469   144077094.534           9.340          48.750           0.000           0.000           0.000           0.000    35781456.042   151403051.830           9.644          47.500           0.000           0.000           0.000           0.000  
C10  39107301.499   203641975.255       -1446.492          42.000           0.000           0.000           0.000           0.000    39107287.682   157468840.216       -1118.266          46.250           0.000           0.000           0.000           0.000    39107286.326   165475724.800       -1175.395          44.000           0.000           0.000           0.000           0.000  
C11  22232076.665   115768257.866        1827.686          47.500           0.000           0.000           0.000           0.000    22232060.367    89519293.441        1413.130          52.000           0.000           0.000           0.000           0.000    22232060.272    94071122.916        1485.189          51.250           0.000           0.000           0.000           0.000  
C12  21782275.058   113426023.644       -1260.950          48.250           0.000           0.000           0.000           0.000    21782259.098    87708131.056        -975.171          53.000           0.000           0.000           0.000           0.000    21782259.597    92167868.324       -1024.738          52.500           0.000           0.000           0.000           0.000  
C13  35948218.011   187191806.382         298.280          49.250           0.000           0.000           0.000           0.000    35948206.142   144748529.862         230.600          49.250           0.000           0.000           0.000           0.000    35948205.843   152108621.869         241.952          49.000           0.000           0.000           0.000           0.000  
C21  23286866.904   121260827.477        2381.015          51.000           0.000           0.000           0.000           0.000           0.000           0.000           0.000           0.000           0.000           0.000           0.000           0.000    23286849.547    98534279.323        1934.532          52.500           0.000           0.000           0.000           0.000  
C22  23052738.954   120041664.546        -843.637          47.750           0.000           0.000           0.000           0.000           0.000           0.000           0.000           0.000           0.000           0.000           0.000           0.000    23052720.701    97543604.987        -685.657          50.000           0.000           0.000           0.000           0.000  
C23  25925585.999   135001329.409       -1534.094          41.000           0.000           0.000           0.000           0.000           0.000           0.000           0.000           0.000           0.000           0.000           0.000           0.000    25925565.385   109699551.107       -1246.747          39.000           0.000           0.000           0.000           0.000  
C34  21576207.568   112352983.596         527.329          51.250           0.000           0.000           0.000           0.000           0.000           0.000           0.000           0.000           0.000           0.000           0.000           0.000    21576194.671    91295940.901         427.734          52.000           0.000           0.000           0.000           0.000  
> 2023  9  8  1 50 20.0000000  0 26
G05  20425183.422   107335062.945        1139.047          49.750           0.000           0.000           0.000           0.000    20425181.741    83637704.807         887.764          49.000           0.000           0.000           0.000           0.000           0.000           0.000           0.000           0.000           0.000           0.000           0.000           0.000  
G11  22282129.542   117093380.280       -2622.198          46.500           0.000           0.000           0.000           0.000    22282129.933    91241596.237       -2043.387          42.250           0.000           0.000           0.000           0.000           0.000           0.000           0.000           0.000           0.000           0.000           0.000           0.000  
G18  24424346.138   128350806.201        3431.922          42.250           0.000           0.000           0.000           0.000    24424345.462   100013594.350        2674.350          40.500           0.000           0.000           0.000           0.000           0.000           0.000           0.000           0.000    24424346.295    95846381.228        2562.880          45.000  
G20  20802248.842   109316551.990       -1250.187          46.750           0.000           0.000           0.000           0.000    20802247.956    85181728.314        -974.181          43.250           0.000           0.000           0.000           0.000           0.000           0.000           0.000           0.000           0.000           0.000           0.000           0.000  
G25  23303326.632   122459811.677       -3227.092          42.250           0.000           0.000           0.000           0.000    23303328.677    95423239.962       -2514.925          43.000           0.000           0.000           0.000           0.000           0.000           0.000           0.000           0.000    23303325.632    91447255.109       -2410.064          47.750  
G29  20777553.876   109186784.703        1213.623          48.000           0.000           0.000           0.000           0.000    20777551.762    85080597.199         945.812          47.250           0.000           0.000           0.000           0.000           0.000           0.000           0.000           0.000           0.000           0.000           0.000           0.000  
E02  27754248.760   145849562.244       -3154.662          43.000    27754250.343   108913641.139       -2355.917          44.250    27754249.918   111754862.191       -2417.467          43.000  
E04         0.000           0.000           0.000           0.000    26851885.736   105372557.106        -841.430          34.000    26851882.516          -0.000           0.000          32.750  
E05  27413349.735   144058137.128        3232.343          39.500    27413353.598   107575887.520        2414.313          46.500    27413353.139   110382212.678        2477.319          47.250  
E09  25648169.797   134782043.330        1515.165          45.000    25648169.262   100648925.763        1131.659          48.500    25648169.296   103274547.587        1161.131          49.250  
E15  27263349.965   143269867.421        2709.295          41.000    27263350.913   106987246.073        2023.275          42.000    27263350.763   109778215.349        2076.043          41.000  
E27  26344721.362   138442447.345        1064.179          37.750    26344720.231   103382340.995         794.717          41.750    26344720.294   106079272.313         815.394          41.750  
E30  25643879.992   134759494.260       -1726.844          43.500    25643878.698   100632088.626       -1289.644          46.500    25643878.864   103257274.228       -1323.187          47.250  
C02  38886418.716   202491788.235         146.936          41.500           0.000           0.000           0.000           0.000    38886400.720   156579420.879         113.717          47.500           0.000           0.000           0.000           0.000    38886404.600   164541104.333         119.246          44.250           0.000           0.000           0.000           0.000  
C03  39056473.110   203377306.827         120.516          44.250           0.000           0.000           0.000           0.000    39056456.730   157264166.210          93.355          46.250           0.000           0.000           0.000           0.000    39056458.776   165260659.284          98.157          45.000           0.000           0.000           0.000           0.000  
C05  39389624.486   205112106.525         153.586          41.250           0.000           0.000           0.000           0.000    39389608.086   158605626.217         118.103          44.750           0.000           0.000           0.000           0.000    39389610.651   166670333.472         124.633          43.500           0.000           0.000           0.000           0.000  
C07  40381498.829   210277063.726       -1491.246          42.000           0.000           0.000           0.000           0.000    40381483.572   162599501.669       -1152.716          44.750           0.000           0.000           0.000           0.000    40381482.087   170867264.755       -1211.437          43.250           0.000           0.000           0.000           0.000  
C08  35781471.937   186323514.698          13.144          46.000           0.000           0.000           0.000           0.000    35781452.481   144077082.508           9.927          49.000           0.000           0.000           0.000           0.000    35781453.051   151403039.169          10.812          47.500           0.000           0.000           0.000           0.000  
C10  39107578.895   203643419.718       -1446.592          41.250           0.000           0.000           0.000           0.000    39107565.080   157469957.180       -1118.523          46.000           0.000           0.000           0.000           0.000    39107563.721   165476898.574       -1175.886          43.750           0.000           0.000           0.000           0.000  
C11  22231725.046   115766426.845        1828.502          47.750           0.000           0.000           0.000           0.000    22231708.739    89517877.583        1413.800          52.000           0.000           0.000           0.000           0.000    22231708.630    94069635.054        1486.027          51.250           0.000           0.000           0.000           0.000  
C12  21782516.648   113427281.653       -1260.442          48.250           0.000           0.000           0.000           0.000    21782500.699    87709103.843        -975.042          52.750           0.000           0.000           0.000           0.000    21782501.189    92168890.558       -1024.258          52.500           0.000           0.000           0.000           0.000  
C13  35948160.095   187191504.801         299.090          49.500           0.000           0.000           0.000           0.000    35948148.235   144748296.670         231.326          49.500           0.000           0.000           0.000           0.000    35948147.921   152108376.790         242.963          49.000           0.000           0.000           0.000           0.000  
C21  23286409.184   121258443.985        2380.696          50.750           0.000           0.000           0.000           0.000           0.000           0.000           0.000           0.000           0.000           0.000           0.000           0.000    23286391.826    98532342.523        1934.493          52.500           0.000           0.000           0.000           0.000  
C22  23052900.585   120042506.255        -843.447          47.750           0.000           0.000           0.000           0.000           0.000           0.000           0.000           0.000           0.000           0.000           0.000           0.000    23052882.338    97544288.922        -685.115          50.000           0.000           0.000           0.000           0.000  
C23  25925880.268   135002861.696       -1533.496          41.000           0.000           0.000           0.000           0.000           0.000           0.000           0.000           0.000           0.000           0.000           0.000           0.000    25925859.699   109700796.300       -1247.239          38.500           0.000           0.000           0.000           0.000  
C34  21576105.735   112352453.290         527.636          51.250           0.000           0.000           0.000           0.000           0.000           0.000           0.000           0.000           0.000           0.000           0.000           0.000    21576092.818    91295509.955         428.482          52.000           0.000           0.000           0.000           0.000  
> 2023  9  8  1 50 21.0000000  0 26
G05  20424966.321   107333922.070        1138.186          49.750           0.000           0.000           0.000           0.000    20424964.654    83636815.812         886.915          48.750           0.000           0.000           0.000           0.000           0.000           0.000           0.000           0.000           0.000           0.000           0.000           0.000  
G11  22282628.358   117096001.574       -2622.679          47.250           0.000           0.000           0.000           0.000    22282628.745    91243638.795       -2043.812          42.750           0.000           0.000           0.000           0.000           0.000           0.000           0.000           0.000           0.000           0.000           0.000           0.000  
G18  24423692.792   128347372.769        3430.810          41.500           0.000           0.000           0.000           0.000    24423692.182   100010918.965        2673.724          39.750           0.000           0.000           0.000           0.000           0.000           0.000           0.000           0.000    24423692.915    95843817.305        2562.606          43.250  
G20  20802486.534   109317801.042       -1250.941          47.000           0.000           0.000           0.000           0.000    20802485.643    85182701.596        -974.767          43.250           0.000           0.000           0.000           0.000           0.000           0.000           0.000           0.000           0.000           0.000           0.000           0.000  
G25  23303940.376   122463036.891       -3227.182          42.000           0.000           0.000           0.000           0.000    23303942.442    95425753.142       -2515.255          42.750           0.000           0.000           0.000           0.000           0.000           0.000           0.000           0.000    23303939.374    91449663.553       -2410.355          47.750  
G29  20777322.532   109185568.969        1212.874          48.250           0.000           0.000           0.000           0.000    20777320.399    85079649.870         944.996          47.000           0.000           0.000           0.000           0.000           0.000           0.000           0.000           0.000           0.000           0.000           0.000           0.000  
E02  27754848.791   145852715.259       -3154.852          43.250    27754850.352   108915995.647       -2355.621          44.750    27754849.920   111757278.134       -2417.109          43.250  
E04         0.000           0.000           0.000           0.000    26852101.077          -0.000           0.000          35.000    26852097.156          -0.000           0.000          34.500  
E05  27412734.186   144054902.812        3233.293          40.500    27412738.142   107573472.315        2414.582          46.500    27412737.682   110379734.473        2477.564          46.750  
E09  25647881.175   134780526.705        1515.646          45.500    25647880.670   100647793.246        1131.586          49.000    25647880.703   103273385.518        1161.220          49.250  
E15  27262834.117   143267156.692        2708.435          40.500    27262835.075   106985221.861        2022.526          41.000    27262834.907   109776138.330        2075.317          40.000  
E27  26344518.564   138441381.699        1063.179          37.250    26344517.435   103381545.213         793.739          41.000    26344517.498   106078455.770         814.589          41.250  
E30  25644208.260   134761219.172       -1727.654          43.000    25644206.948   100633376.710       -1290.074          46.000    25644207.100   103258595.906       -1323.819          46.500  
C02  38886390.085   202491639.214         147.517          40.750           0.000           0.000           0.000           0.000    38886372.110   156579305.659         113.778          47.500           0.000           0.000           0.000           0.000    38886375.986   164540983.246         119.766          43.750           0.000           0.000           0.000           0.000  
C03  39056449.660   203377184.656         121.298          44.250           0.000           0.000           0.000           0.000    39056433.278   157264071.730          93.975          46.250           0.000           0.000           0.000           0.000    39056435.323   165260560.013          98.727          44.750           0.000           0.000           0.000           0.000  
C05  39389594.627   205111950.964         153.904          41.250           0.000           0.000           0.000           0.000    39389578.206   158605505.936         118.629          45.250           0.000           0.000           0.000           0.000    39389580.787   166670207.100         124.616          43.000           0.000           0.000           0.000           0.000  
C07  40381784.917   210278553.301       -1490.771          41.250           0.000           0.000           0.000           0.000    40381769.601   162600653.502       -1152.358          45.250           0.000           0.000           0.000           0.000    40381768.147   170868475.142       -1210.772          43.250           0.000           0.000           0.000           0.000  
C08  35781468.992   186323499.410          13.205          45.750           0.000           0.000           0.000           0.000    35781449.539   144077070.674          10.016          48.750           0.000           0.000           0.000           0.000    35781450.116   151403026.739          10.862          47.500           0.000           0.000           0.000           0.000  
C10  39107856.341   203644864.478       -1446.414          41.000           0.000           0.000           0.000           0.000    39107842.527   157471074.330       -1118.166          46.250           0.000           0.000           0.000           0.000    39107841.156   165478072.517       -1175.132          44.000           0.000           0.000           0.000           0.000  
C11  22231373.559   115764596.509        1827.765          47.500           0.000           0.000           0.000           0.000    22231357.236    89516462.239        1413.264          51.750           0.000           0.000           0.000           0.000    22231357.121    94068147.742        1485.390          50.750           0.000           0.000           0.000           0.000  
C12  21782758.334   113428540.179       -1260.525          48.000           0.000           0.000           0.000           0.000    21782742.396    87710077.012        -974.846          53.000           0.000           0.000           0.000           0.000    21782742.883    92169913.231       -1024.437          52.500           0.000           0.000           0.000           0.000  
C13  35948102.254   187191203.626         299.000          49.250           0.000           0.000           0.000           0.000    35948090.401   144748063.760         231.421          49.250           0.000           0.000           0.000           0.000    35948090.088   152108132.069         242.767          49.000           0.000           0.000           0.000           0.000  
C21  23285951.576   121256061.086        2381.004          50.750           0.000           0.000           0.000           0.000           0.000           0.000           0.000           0.000           0.000           0.000           0.000           0.000    23285934.217    98530406.235        1934.615          52.250           0.000           0.000           0.000           0.000  
C22  23053062.320   120043348.466        -844.274          47.750           0.000           0.000           0.000           0.000           0.000           0.000           0.000           0.000           0.000           0.000           0.000           0.000    23053044.083    97544973.288        -685.651          50.000           0.000           0.000           0.000           0.000  
C23  25926174.697   135004394.902       -1534.893          40.000           0.000           0.000           0.000           0.000           0.000           0.000           0.000           0.000           0.000           0.000           0.000           0.000    25926154.135   109702042.157       -1248.373          36.500           0.000           0.000           0.000           0.000  
C34  21576004.035   112351923.662         527.458          51.000           0.000           0.000           0.000           0.000           0.000           0.000           0.000           0.000           0.000           0.000           0.000           0.000    21575991.109    91295079.609         428.080          52.000           0.000           0.000           0.000           0.000  
> 2023  9  8  1 50 22.0000000  0 26
G05  20424749.294   107332781.597        1138.348          49.500           0.000           0.000           0.000           0.000    20424747.632    83635927.139         886.686          48.750           0.000           0.000           0.000           0.000           0.000           0.000           0.000           0.000           0.000           0.000           0.000           0.000  
G11  22283126.965   117098621.747       -2620.734          47.250           0.000           0.000           0.000           0.000    22283127.353    91245680.496       -2042.253          42.750           0.000           0.000           0.000           0.000           0.000           0.000           0.000           0.000           0.000           0.000           0.000           0.000  
G18  24423039.650   128343940.573        3429.569          40.750           0.000           0.000           0.000           0.000    24423039.130   100008244.610        2672.366          38.500           0.000           0.000           0.000           0.000           0.000           0.000           0.000           0.000    24423039.803    95841254.336        2561.343          43.250  
G20  20802724.121   109319049.601       -1249.863          47.250           0.000           0.000           0.000           0.000    20802723.245    85183674.491        -973.924          43.500           0.000           0.000           0.000           0.000           0.000           0.000           0.000           0.000           0.000           0.000           0.000           0.000  
G25  23304554.384   122466263.494       -3228.769          41.500           0.000           0.000           0.000           0.000    23304556.439    95428267.327       -2516.305          42.000           0.000           0.000           0.000           0.000           0.000           0.000           0.000           0.000    23304553.367    91452072.975       -2411.506          47.500  
G29  20777091.328   109184354.002        1212.366          48.000           0.000           0.000           0.000           0.000    20777089.199    85078703.142         944.404          46.500           0.000           0.000           0.000           0.000           0.000           0.000           0.000           0.000           0.000           0.000           0.000           0.000  
E02  27755449.010   145855869.218       -3155.729          42.750    27755450.540   108918350.853       -2356.823          43.750    27755450.098   111759694.789       -2418.814          42.750  
E04  26852305.997   141109835.385       -1137.411          39.000    26852311.878   105374243.199        -850.041          37.750    26852308.844   108123129.312        -871.989          38.000  
E05  27412118.565   144051668.159        3234.237          39.750    27412122.632   107571056.917        2415.023          46.250    27412122.169   110377256.041        2478.252          46.500  
E09  25647592.406   134779009.251        1516.534          45.250    25647591.913   100646660.087        1132.296          48.750    25647591.937   103272222.778        1162.332          49.250  
E15  27262318.445   143264447.157        2707.099          39.000    27262319.470   106983198.550        2021.593          40.000    27262319.277   109774062.257        2073.920          38.250  
E27  26344315.935   138440316.792        1062.687          36.750    26344314.780   103380749.950         793.505          40.500    26344314.840   106077639.782         813.947          40.500  
E30  25644536.795   134762945.473       -1729.229          42.500    25644535.453   100634665.832       -1291.326          45.250    25644535.594   103259918.649       -1325.081          45.750  
C02  38886361.522   202491490.520         146.684          40.500           0.000           0.000           0.000           0.000    38886343.558   156579190.652         113.382          47.750           0.000           0.000           0.000           0.000    38886347.435   164540862.424         119.257          43.500           0.000           0.000           0.000           0.000  
C03  39056426.136   203377062.080         121.863          43.750           0.000           0.000           0.000           0.000    39056409.750   157263976.991          94.092          46.250           0.000           0.000           0.000           0.000    39056411.782   165260460.415          99.074          45.250           0.000           0.000           0.000           0.000  
C05  39389564.958   205111796.384         152.708          39.750           0.000           0.000           0.000           0.000    39389548.508   158605386.351         117.673          45.000           0.000           0.000           0.000           0.000    39389551.080   166670081.448         123.722          42.500           0.000           0.000           0.000           0.000  
C07  40382070.957   210280042.818       -1490.011          40.750           0.000           0.000           0.000           0.000    40382055.626   162601805.288       -1151.995          45.500           0.000           0.000           0.000           0.000    40382054.198   170869685.531       -1210.973          42.750           0.000           0.000           0.000           0.000  
C08  35781465.984   186323483.785          13.915          45.750           0.000           0.000           0.000           0.000    35781446.532   144077058.555          10.916          49.000           0.000           0.000           0.000           0.000    35781447.116   151403014.040          11.220          47.500           0.000           0.000           0.000           0.000  
C10  39108133.823   203646309.357       -1445.894          41.250           0.000           0.000           0.000           0.000    39108120.013   157472191.621       -1118.345          46.250           0.000           0.000           0.000           0.000    39108118.635   165479246.643       -1175.518          43.500           0.000           0.000           0.000           0.000  
C11  22231022.185   115762766.782        1827.144          47.500           0.000           0.000           0.000           0.000    22231005.849    89515047.362        1412.795          51.250           0.000           0.000           0.000           0.000    22231005.739    94066660.913        1485.094          50.500           0.000           0.000           0.000           0.000  
C12  21782999.973   113429798.460       -1259.654          48.500           0.000           0.000           0.000           0.000    21782984.038    87711049.968        -974.193          53.500           0.000           0.000           0.000           0.000    21782984.518    92170935.688       -1023.895          52.500           0.000           0.000           0.000           0.000  
C13  35948044.403   187190902.386         299.403          49.250           0.000           0.000           0.000           0.000    35948032.558   144747830.826         231.421          49.500           0.000           0.000           0.000           0.000    35948032.236   152107887.288         242.946          48.750           0.000           0.000           0.000           0.000  
C21  23285494.000   121253678.395        2381.009          50.500           0.000           0.000           0.000           0.000           0.000           0.000           0.000           0.000           0.000           0.000           0.000           0.000    23285476.650    98528470.104        1934.414          52.000           0.000           0.000           0.000           0.000  
C22  23053223.908   120044189.884        -841.922          49.000           0.000           0.000           0.000           0.000           0.000           0.000           0.000           0.000           0.000           0.000           0.000           0.000    23053205.679    97545657.036        -684.411          50.500           0.000           0.000           0.000           0.000  
C23  25926469.384   135005929.419       -1536.458          38.250           0.000           0.000           0.000           0.000           0.000           0.000           0.000           0.000           0.000           0.000           0.000           0.000    25926448.812   109703288.977       -1248.971          36.750           0.000           0.000           0.000           0.000  
C34  21575902.415   112351394.454         527.139          51.000           0.000           0.000           0.000           0.000           0.000           0.000           0.000           0.000           0.000           0.000           0.000           0.000    21575889.475    91294649.580         427.890          51.750           0.000           0.000           0.000           0.000  
> 2023  9  8  1 50 23.0000000  0 26
G05  20424532.426   107331641.954        1137.482          49.500           0.000           0.000           0.000           0.000    20424530.776    83635039.085         886.406          49.000           0.000           0.000           0.000           0.000           0.000           0.000           0.000           0.000           0.000           0.000           0.000           0.000  
G11  22283625.396   117101241.043       -2619.891          46.500           0.000           0.000           0.000           0.000    22283625.788    91247721.464       -2041.599          42.500           0.000           0.000           0.000           0.000           0.000           0.000           0.000           0.000           0.000           0.000           0.000           0.000  
G18  24422386.757   128340509.674        3428.860          41.000           0.000           0.000           0.000           0.000    24422386.343   100005571.161        2671.875          38.500           0.000           0.000           0.000           0.000           0.000           0.000           0.000           0.000    24422386.938    95838692.323        2560.745          43.750  
G20  20802961.641   109320297.810       -1249.472          47.500           0.000           0.000           0.000           0.000    20802960.765    85184647.099        -973.616          43.500           0.000           0.000           0.000           0.000           0.000           0.000           0.000           0.000           0.000           0.000           0.000           0.000  
G25  23305168.743   122469491.946       -3230.752          42.250           0.000           0.000           0.000           0.000    23305170.787    95430782.933       -2517.462          42.750           0.000           0.000           0.000           0.000           0.000           0.000           0.000           0.000    23305167.707    91454483.770       -2412.495          47.750  
G29  20776860.280   109183139.844        1211.287          48.250           0.000           0.000           0.000           0.000    20776858.166    85077757.007         943.968          46.250           0.000           0.000           0.000           0.000           0.000           0.000           0.000           0.000           0.000           0.000           0.000           0.000  
E02  27756049.512   145859024.751       -3157.159          43.250    27756051.001   108920707.203       -2357.633          44.500    27756050.577   111762112.599       -2419.182          43.750  
E04  26852522.991   141110971.770       -1136.109          39.500    26852524.306   105375091.708        -848.348          42.250    26852522.863   108123999.998        -870.564          42.500  
E05  27411503.080   144048434.024        3233.841          39.750    27411507.184   107568641.802        2415.001          46.250    27411506.730   110374777.951        2477.911          46.250  
E09  25647303.521   134777491.168        1517.769          44.750    25647303.039   100645526.454        1132.905          48.000    25647303.048   103271059.570        1163.103          48.250  
E15  27261803.004   143261738.843        2706.435          38.500    27261804.080   106981176.074        2021.224          39.750    27261803.897   109771987.045        2073.205          39.000  
E27  26344113.363   138439252.196        1063.174          36.750    26344112.215   103379955.046         793.259          39.750    26344112.263   106076824.062         814.109          40.000  
E30  25644865.609   134764673.339       -1730.587          42.500    25644864.255   100635956.152       -1292.505          45.500    25644864.395   103261242.611       -1326.188          46.250  
C02  38886333.140   202491342.780         145.964          40.750           0.000           0.000           0.000           0.000    38886315.191   156579076.401         113.013          47.500           0.000           0.000           0.000           0.000    38886319.054   164540742.367         118.782          44.000           0.000           0.000           0.000           0.000  
C03  39056402.650   203376939.796         121.611          43.500           0.000           0.000           0.000           0.000    39056386.273   157263882.455          93.885          46.500           0.000           0.000           0.000           0.000    39056388.306   165260361.083          98.744          44.250           0.000           0.000           0.000           0.000  
C05  39389535.570   205111643.276         151.283          39.750           0.000           0.000           0.000           0.000    39389519.072   158605267.871         117.159          45.250           0.000           0.000           0.000           0.000    39389521.659   166669956.957         122.940          43.500           0.000           0.000           0.000           0.000  
C07  40382357.142   210281533.118       -1490.474          41.250           0.000           0.000           0.000           0.000    40382341.830   162602957.686       -1152.576          45.250           0.000           0.000           0.000           0.000    40382340.398   170870896.503       -1211.247          42.250           0.000           0.000           0.000           0.000  
C08  35781462.931   186323467.891          13.965          46.000           0.000           0.000           0.000           0.000    35781443.491   144077046.268          10.960          49.500           0.000           0.000           0.000           0.000    35781444.057   151403001.110          11.460          47.500           0.000           0.000           0.000           0.000  
C10  39108411.495   203647755.165       -1447.185          42.250           0.000           0.000           0.000           0.000    39108397.669   157473309.604       -1119.071          46.250           0.000           0.000           0.000           0.000    39108396.286   165480421.458       -1175.842          43.750           0.000           0.000           0.000           0.000  
C11  22230670.914   115760937.572        1826.731          47.500           0.000           0.000           0.000           0.000    22230654.562    89513632.897        1412.515          50.750           0.000           0.000           0.000           0.000    22230654.471    94065174.550        1484.647          49.750           0.000           0.000           0.000           0.000  
C12  21783241.617   113431056.787       -1259.816          48.250           0.000           0.000           0.000           0.000    21783225.692    87712022.971        -974.232          54.000           0.000           0.000           0.000           0.000    21783226.157    92171958.157       -1023.833          52.500           0.000           0.000           0.000           0.000  
C13  35947986.580   187190601.274         298.917          49.250           0.000           0.000           0.000           0.000    35947974.734   144747597.963         231.404          49.750           0.000           0.000           0.000           0.000    35947974.400   152107642.566         243.047          49.250           0.000           0.000           0.000           0.000  
C21  23285036.570   121251296.464        2380.244          50.750           0.000           0.000           0.000           0.000           0.000           0.000           0.000           0.000           0.000           0.000           0.000           0.000    23285019.218    98526534.562        1934.012          51.750           0.000           0.000           0.000           0.000  
C22  23053385.389   120045030.738        -841.380          49.250           0.000           0.000           0.000           0.000           0.000           0.000           0.000           0.000           0.000           0.000           0.000           0.000    23053367.146    97546340.264        -683.589          51.250           0.000           0.000           0.000           0.000  
C23  25926764.257   135007464.871       -1537.312          38.250           0.000           0.000           0.000           0.000           0.000           0.000           0.000           0.000           0.000           0.000           0.000           0.000    25926743.700   109704536.683       -1249.189          38.000           0.000           0.000           0.000           0.000  
C34  21575800.891   112350865.750         526.279          50.750           0.000           0.000           0.000           0.000           0.000           0.000           0.000           0.000           0.000           0.000           0.000           0.000    21575787.934    91294219.920         427.505          51.750           0.000           0.000           0.000           0.000  
> 2023  9  8  1 50 24.0000000  0 26
G05  20424315.777   107330503.456        1134.805          49.500           0.000           0.000           0.000           0.000    20424314.133    83634151.932         884.289          49.500           0.000           0.000           0.000           0.000           0.000           0.000           0.000           0.000           0.000           0.000           0.000           0.000  
G11  22284123.802   117103860.244       -2620.511          47.250           0.000           0.000           0.000           0.000    22284124.204    91249762.424       -2042.057          42.750           0.000           0.000           0.000           0.000           0.000           0.000           0.000           0.000           0.000           0.000           0.000           0.000  
G18  24421734.020   128337079.606        3427.954          38.750           0.000           0.000           0.000           0.000    24421733.704   100002898.346        2670.685          36.250           0.000           0.000           0.000           0.000           0.000           0.000           0.000           0.000    24421734.207    95836130.906        2559.633          42.000  
G20  20803199.237   109321546.410       -1251.517          48.250           0.000           0.000           0.000           0.000    20803198.365    85185620.032        -975.214          44.000           0.000           0.000           0.000           0.000           0.000           0.000           0.000           0.000           0.000           0.000           0.000           0.000  
G25  23305783.358   122472721.762       -3232.351          42.750           0.000           0.000           0.000           0.000    23305785.405    95433299.663       -2518.764          42.500           0.000           0.000           0.000           0.000           0.000           0.000           0.000           0.000    23305782.321    91456895.638       -2413.931          47.250  
G29  20776629.419   109181926.634        1209.192          47.500           0.000           0.000           0.000           0.000    20776627.290    85076811.681         941.889          45.000           0.000           0.000           0.000           0.000           0.000           0.000           0.000           0.000           0.000           0.000           0.000           0.000  
E02  27756650.260   145862181.497       -3157.891          42.750    27756651.722   108923064.511       -2358.650          45.000    27756651.292   111764531.403       -2420.322          44.250  
E04  26852738.140   141112107.749       -1136.880          40.000    26852739.064   105375939.994        -848.918          44.500    26852738.205   108124870.410        -871.045          44.750  
E05  27410887.786   144045200.608        3232.494          40.250    27410891.870   107566227.252        2413.749          46.500    27410891.417   110372300.386        2476.810          46.500  
E09  25647014.683   134775973.346        1516.528          45.250    25647014.199   100644392.992        1131.994          47.500    25647014.216   103269896.559        1161.326          48.250  
E15  27261287.741   143259031.253        2705.859          36.500    27261288.829   106979154.160        2020.548          38.750    27261288.658   109769912.397        2072.579          37.500  
E27  26343910.903   138438188.179        1061.615          34.250    26343909.736   103379160.499         792.192          35.750    26343909.798   106076008.785         813.310          36.750  
E30  25645194.645   134766402.469       -1732.499          42.000    25645193.284   100637247.351       -1293.757          45.250    25645193.430   103262567.523       -1327.484          45.500  
C02  38886304.968   202491196.060         144.712          40.750           0.000           0.000           0.000           0.000    38886287.014   156578962.950         111.806          47.500           0.000           0.000           0.000           0.000    38886290.875   164540623.167         116.782          43.250           0.000           0.000           0.000           0.000  
C03  39056379.289   203376818.135         120.365          43.000           0.000           0.000           0.000           0.000    39056362.902   157263788.359          92.902          47.250           0.000           0.000           0.000           0.000    39056364.929   165260262.204          97.638          44.750           0.000           0.000           0.000           0.000  
C05  39389506.381   205111491.284         149.719          39.750           0.000           0.000           0.000           0.000    39389489.865   158605150.319         115.617          45.250           0.000           0.000           0.000           0.000    39389492.473   166669833.420         121.492          43.500           0.000           0.000           0.000           0.000  
C07  40382643.499   210283024.254       -1492.296          41.000           0.000           0.000           0.000           0.000    40382628.196   162604110.724       -1153.750          44.750           0.000           0.000           0.000           0.000    40382626.764   170872108.182       -1212.543          42.250           0.000           0.000           0.000           0.000  
C08  35781459.928   186323452.237          11.775          46.000           0.000           0.000           0.000           0.000    35781440.486   144077034.145           9.379          49.500           0.000           0.000           0.000           0.000    35781441.042   151402988.364           9.862          47.750           0.000           0.000           0.000           0.000  
C10  39108689.356   203649201.943       -1448.649          41.250           0.000           0.000           0.000           0.000    39108675.514   157474428.342       -1120.462          46.250           0.000           0.000           0.000           0.000    39108674.133   165481597.084       -1177.172          43.750           0.000           0.000           0.000           0.000  
C11  22230319.772   115759109.039        1824.853          46.000           0.000           0.000           0.000           0.000    22230303.402    89512218.953        1411.185          48.750           0.000           0.000           0.000           0.000    22230303.322    94063688.708        1483.228          48.000           0.000           0.000           0.000           0.000  
C12  21783483.387   113432315.748       -1262.258          48.500           0.000           0.000           0.000           0.000    21783467.470    87712996.490        -976.378          53.750           0.000           0.000           0.000           0.000    21783467.920    92172981.128       -1025.409          53.250           0.000           0.000           0.000           0.000  
C13  35947928.846   187190300.635         296.642          49.250           0.000           0.000           0.000           0.000    35947917.003   144747365.484         229.560          49.500           0.000           0.000           0.000           0.000    35947916.667   152107398.272         240.990          49.000           0.000           0.000           0.000           0.000  
C21  23284579.348   121248915.600        2378.070          50.750           0.000           0.000           0.000           0.000           0.000           0.000           0.000           0.000           0.000           0.000           0.000           0.000    23284561.997    98524599.913        1932.151          51.750           0.000           0.000           0.000           0.000  
C22  23053546.917   120045871.831        -843.397          50.250           0.000           0.000           0.000           0.000           0.000           0.000           0.000           0.000           0.000           0.000           0.000           0.000    23053528.664    97547023.707        -685.160          52.000           0.000           0.000           0.000           0.000  
C23  25927059.283   135009001.146       -1537.894          37.000           0.000           0.000           0.000           0.000           0.000           0.000           0.000           0.000           0.000           0.000           0.000           0.000    25927038.682   109705784.959       -1250.290          36.500           0.000           0.000           0.000           0.000  
C34  21575699.508   112350337.809         523.786          50.500           0.000           0.000           0.000           0.000           0.000           0.000           0.000           0.000           0.000           0.000           0.000           0.000    21575686.550    91293790.921         425.454          51.250           0.000           0.000           0.000           0.000  
> 2023  9  8  1 50 25.0000000  0 26
G05  20424099.332   107329366.010        1133.062          49.000           0.000           0.000           0.000           0.000    20424097.695    83633265.628         882.830          49.250           0.000           0.000           0.000           0.000           0.000           0.000           0.000           0.000           0.000           0.000           0.000           0.000  
G11  22284622.166   117106479.148       -2621.992          47.000           0.000           0.000           0.000           0.000    22284622.553    91251803.096       -2043.141          43.000           0.000           0.000           0.000           0.000           0.000           0.000           0.000           0.000           0.000           0.000           0.000           0.000  
G18  24421081.475   128333650.402        3427.680          37.250           0.000           0.000           0.000           0.000    24421081.222   100000226.263        2671.143          35.750           0.000           0.000           0.000           0.000           0.000           0.000           0.000           0.000    24421081.651    95833570.135        2560.080          40.250  
G20  20803436.847   109322795.080       -1252.506          48.750           0.000           0.000           0.000           0.000    20803435.963    85186592.991        -975.985          44.500           0.000           0.000           0.000           0.000           0.000           0.000           0.000           0.000           0.000           0.000           0.000           0.000  
G25  23306398.282   122475953.223       -3233.748          42.500           0.000           0.000           0.000           0.000    23306400.309    95435817.681       -2519.798          41.500           0.000           0.000           0.000           0.000           0.000           0.000           0.000           0.000    23306397.250    91459308.738       -2415.032          46.750  
G29  20776398.727   109180714.296        1208.113          47.000           0.000           0.000           0.000           0.000    20776396.573    85075866.984         941.431          44.250           0.000           0.000           0.000           0.000           0.000           0.000           0.000           0.000           0.000           0.000           0.000           0.000  
E02  27757251.308   145865339.859       -3160.484          40.750    27757252.700   108925422.847       -2359.549          44.000    27757252.266   111766951.272       -2421.155          44.000  
E04  26852953.963   141113242.872       -1137.724          39.000    26852954.412   105376787.604        -848.281          46.000    26852953.824   108125740.158        -870.754          45.750  
E05  27410272.639   144041967.875        3231.041          41.000    27410276.695   107563813.187        2412.833          46.750    27410276.247   110369823.352        2475.642          46.500  
E09  25646725.842   134774455.478        1514.902          45.250    25646725.351   100643259.507        1131.027          47.500    25646725.370   103268733.508        1160.510          48.250  
E15  27260772.657   143256324.453        2705.501          35.000    27260773.745   106977132.904        2020.660          37.750    27260773.558   109767838.384        2072.646          36.750  
E27  26343708.539   138437124.387        1065.073          31.750    26343707.324   103378366.139         793.259          33.250    26343707.394   106075193.739         813.673          34.000  
E30  25645523.956   134768132.987       -1733.538          41.500    25645522.591   100638539.633       -1294.640          44.750    25645522.727   103263893.511       -1328.501          45.000  
C02  38886277.022   202491050.481         142.382          40.250           0.000           0.000           0.000           0.000    38886259.047   156578850.342         110.694          47.500           0.000           0.000           0.000           0.000    38886262.895   164540504.810         116.033          43.250           0.000           0.000           0.000           0.000  
C03  39056356.053   203376697.086         119.080          43.250           0.000           0.000           0.000           0.000    39056339.655   157263694.744          91.633          46.750           0.000           0.000           0.000           0.000    39056341.684   165260163.842          96.285          44.250           0.000           0.000           0.000           0.000  
C05  39389477.464   205111340.670         147.802          39.500           0.000           0.000           0.000           0.000    39389460.926   158605033.810         114.728          45.000           0.000           0.000           0.000           0.000    39389463.557   166669711.030         120.308          42.750           0.000           0.000           0.000           0.000  
C07  40382930.053   210284516.385       -1494.006          40.750           0.000           0.000           0.000           0.000    40382914.716   162605264.498       -1155.080          43.500           0.000           0.000           0.000           0.000    40382913.305   170873320.654       -1214.510          40.500           0.000           0.000           0.000           0.000  
C08  35781456.915   186323436.532          11.456          46.250           0.000           0.000           0.000           0.000    35781437.476   144077022.009           8.988          49.500           0.000           0.000           0.000           0.000    35781438.024   151402975.620           9.359          47.750           0.000           0.000           0.000           0.000  
C10  39108967.414   203650649.808       -1450.431          40.750           0.000           0.000           0.000           0.000    39108953.559   157475547.906       -1121.502          45.750           0.000           0.000           0.000           0.000    39108952.178   165482773.568       -1178.412          43.000           0.000           0.000           0.000           0.000  
C11  22229968.721   115757281.016        1824.579          45.000           0.000           0.000           0.000           0.000    22229952.352    89510805.437        1410.733          47.750           0.000           0.000           0.000           0.000    22229952.277    94062203.317        1482.842          46.750           0.000           0.000           0.000           0.000  
C12  21783725.239   113433575.121       -1263.772          48.250           0.000           0.000           0.000           0.000    21783709.319    87713970.297        -977.216          54.000           0.000           0.000           0.000           0.000    21783709.772    92174004.471       -1026.605          53.250           0.000           0.000           0.000           0.000  
C13  35947871.173   187190000.300         296.184          49.250           0.000           0.000           0.000           0.000    35947859.337   144747133.258         229.035          49.250           0.000           0.000           0.000           0.000    35947858.993   152107154.230         240.409          49.000           0.000           0.000           0.000           0.000  
C21  23284122.330   121246535.790        2376.031          50.750           0.000           0.000           0.000           0.000           0.000           0.000           0.000           0.000           0.000           0.000           0.000           0.000    23284104.976    98522666.108        1930.592          51.500           0.000           0.000           0.000           0.000  
C22  23053708.402   120046712.695        -844.157          50.750           0.000           0.000           0.000           0.000           0.000           0.000           0.000           0.000           0.000           0.000           0.000           0.000    23053690.148    97547706.979        -685.819          52.250           0.000           0.000           0.000           0.000  
C23  25927354.495   135010538.104       -1538.184          36.250           0.000           0.000           0.000           0.000           0.000           0.000           0.000           0.000           0.000           0.000           0.000           0.000    25927333.836   109707033.831       -1250.485          37.250           0.000           0.000           0.000           0.000  
C34  21575598.247   112349810.508         522.909          50.500           0.000           0.000           0.000           0.000           0.000           0.000           0.000           0.000           0.000           0.000           0.000           0.000    21575585.285    91293362.423         424.878          51.000           0.000           0.000           0.000           0.000  
> 2023  9  8  1 50 26.0000000  0 26
G05  20423883.131   107328229.843        1132.330          48.000           0.000           0.000           0.000           0.000    20423881.494    83632380.308         882.132          49.250           0.000           0.000           0.000           0.000           0.000           0.000           0.000           0.000           0.000           0.000           0.000           0.000  
G11  22285120.388   117109097.285       -2619.868          47.750           0.000           0.000           0.000           0.000    22285120.772    91253843.164       -2041.409          43.750           0.000           0.000           0.000           0.000           0.000           0.000           0.000           0.000           0.000           0.000           0.000           0.000  
G18  24420429.219   128330222.685        3427.373          35.250           0.000           0.000           0.000           0.000    24420431.937    99997583.167        2670.550          35.000           0.000           0.000           0.000           0.000           0.000           0.000           0.000           0.000    24420429.368    95831010.363        2559.270          39.500  
G20  20803674.423   109324043.561       -1251.310          49.000           0.000           0.000           0.000           0.000    20803673.534    85187565.824        -975.052          45.000           0.000           0.000           0.000           0.000           0.000           0.000           0.000           0.000           0.000           0.000           0.000           0.000  
G25  23307013.659   122479187.073       -3236.335          40.750           0.000           0.000           0.000           0.000    23307015.681    95438337.578       -2522.335          39.750           0.000           0.000           0.000           0.000           0.000           0.000           0.000           0.000    23307012.637    91461723.622       -2416.898          43.750  
G29  20776168.201   109179502.882        1208.041          45.250           0.000           0.000           0.000           0.000    20776166.049    85074923.014         941.453          43.250           0.000           0.000           0.000           0.000           0.000           0.000           0.000           0.000           0.000           0.000           0.000           0.000  
E02  27757852.769   145868500.354       -3162.177          38.500    27757854.131   108927782.972       -2361.623          42.750    27757853.693   111769372.943       -2423.211          43.000  
E04  26853169.633   141114376.318       -1133.746          40.500    26853169.748   105377634.115        -846.264          47.500    26853169.392   108126608.727        -868.296          47.750  
E05  27409657.682   144038736.366        3229.812          40.250    27409661.748   107561399.991        2411.804          46.000    27409661.301   110367347.188        2474.933          46.000  
E09  25646436.939   134772937.299        1516.282          45.750    25646436.443   100642125.769        1132.279          48.250    25646436.457   103267570.187        1161.723          48.500  
E15  27260257.867   143253619.045        2704.697          33.250    27260258.875   106975112.447        2019.531          36.750    27260258.697   109765765.196        2072.450          36.750  
E27  26343509.099   138436072.669        1063.213          29.750    26343504.897   103377571.671         794.175          35.750    26343504.950   106074378.586         814.617          35.000  
E30  25645853.622   134769865.344       -1734.974          40.750    25645852.235   100639833.194       -1295.545          44.250    25645852.353   103265220.816       -1329.228          44.750  
C02  38886249.406   202490906.693         141.029          39.750           0.000           0.000           0.000           0.000    38886231.416   156578739.100         109.185          46.250           0.000           0.000           0.000           0.000    38886235.263   164540387.905         114.692          42.500           0.000           0.000           0.000           0.000  
C03  39056333.022   203376577.069         117.901          43.000           0.000           0.000           0.000           0.000    39056316.588   157263601.896          91.002          45.750           0.000           0.000           0.000           0.000    39056318.628   165260066.284          95.743          43.500           0.000           0.000           0.000           0.000  
C05  39389448.957   205111192.148         145.718          39.750           0.000           0.000           0.000           0.000    39389432.414   158604918.973         112.689          43.250           0.000           0.000           0.000           0.000    39389435.036   166669590.338         118.838          41.250           0.000           0.000           0.000           0.000  
C07  40383216.910   210286010.074       -1495.504          39.250           0.000           0.000           0.000           0.000    40383201.557   162606419.446       -1156.555          42.750           0.000           0.000           0.000           0.000    40383200.131   170874534.306       -1215.220          39.750           0.000           0.000           0.000           0.000  
C08  35781453.897   186323420.811          12.507          46.750           0.000           0.000           0.000           0.000    35781434.452   144077009.816           9.619          49.500           0.000           0.000           0.000           0.000    35781435.005   151402962.831          10.337          48.250           0.000           0.000           0.000           0.000  
C10  39109245.793   203652099.411       -1452.197          39.250           0.000           0.000           0.000           0.000    39109231.921   157476668.757       -1122.726          44.750           0.000           0.000           0.000           0.000    39109230.552   165483951.433       -1179.865          42.500           0.000           0.000           0.000           0.000  
C11  22229617.795   115755453.619        1824.836          43.000           0.000           0.000           0.000           0.000    22229601.413    89509392.373        1411.129          46.500           0.000           0.000           0.000           0.000    22229601.343    94060718.395        1483.200          45.250           0.000           0.000           0.000           0.000  
C12  21783967.154   113434834.843       -1262.878          48.000           0.000           0.000           0.000           0.000    21783951.238    87714944.384        -976.713          54.000           0.000           0.000           0.000           0.000    21783951.707    92175028.141       -1026.175          53.250           0.000           0.000           0.000           0.000  
C13  35947813.578   187189700.366         296.531          49.000           0.000           0.000           0.000           0.000    35947801.738   144746901.312         229.309          49.000           0.000           0.000           0.000           0.000    35947801.391   152106910.492         240.990          48.750           0.000           0.000           0.000           0.000  
C21  23283665.572   121244157.372        2375.008          49.750           0.000           0.000           0.000           0.000           0.000           0.000           0.000           0.000           0.000           0.000           0.000           0.000    23283648.229    98520733.417        1930.123          51.000           0.000           0.000           0.000           0.000  
C22  23053869.786   120047553.028        -842.391          51.500           0.000           0.000           0.000           0.000           0.000           0.000           0.000           0.000           0.000           0.000           0.000           0.000    23053851.519    97548389.791        -684.349          52.250           0.000           0.000           0.000           0.000  
C23  25927649.729   135012075.062       -1540.811          34.750           0.000           0.000           0.000           0.000           0.000           0.000           0.000           0.000           0.000           0.000           0.000           0.000    25927629.222   109708283.551       -1248.435          36.250           0.000           0.000           0.000           0.000  
C34  21575497.106   112349283.848         523.289          50.000           0.000           0.000           0.000           0.000           0.000           0.000           0.000           0.000           0.000           0.000           0.000           0.000    21575484.149    91292934.473         425.297          50.500           0.000           0.000           0.000           0.000  
> 2023  9  8  1 50 27.0000000  0 30
G05  20423667.275   107327095.503        1131.184          48.000           0.000           0.000           0.000           0.000    20423665.624    83631496.349         881.388          49.250           0.000           0.000           0.000           0.000           0.000           0.000           0.000           0.000           0.000           0.000           0.000           0.000  
G11  22285618.716   117111715.993       -2621.031          47.250           0.000           0.000           0.000           0.000    22285619.116    91255883.721       -2042.303          43.750           0.000           0.000           0.000           0.000           0.000           0.000           0.000           0.000           0.000           0.000           0.000           0.000  
G18  24419777.059   128326795.354        3427.412          34.250           0.000           0.000           0.000           0.000    24419778.611    99994912.490        2671.009          35.000           0.000           0.000           0.000           0.000           0.000           0.000           0.000           0.000    24419777.175    95828451.049        2558.443          38.000  
G20  20803912.154   109325292.820       -1252.461          49.250           0.000           0.000           0.000           0.000    20803911.254    85188539.250        -975.946          45.250           0.000           0.000           0.000           0.000           0.000           0.000           0.000           0.000           0.000           0.000           0.000           0.000  
G25  23307629.420   122482422.893       -3236.570          38.750           0.000           0.000           0.000           0.000    23307631.469    95440858.970       -2521.798          38.000           0.000           0.000           0.000           0.000           0.000           0.000           0.000           0.000    23307628.401    91464139.991       -2417.016          42.000  
G29  20775937.856   109178292.429        1207.421          44.000           0.000           0.000           0.000           0.000    20775935.712    85073979.807         940.872          43.000           0.000           0.000           0.000           0.000           0.000           0.000           0.000           0.000           0.000           0.000           0.000           0.000  
R07  22548011.643   120701269.599        4499.618          45.000           0.000           0.000           0.000           0.000    22547999.247    93878712.973        3499.931          47.000  
R12  22547036.206   120442212.886       -3163.000          43.000           0.000           0.000           0.000           0.000           0.000           0.000           0.000           0.000  
R20  24135171.196   129061600.110       -3658.840          38.750           0.000           0.000           0.000           0.000           0.000           0.000           0.000           0.000  
R22  19861824.658   106023767.176        1971.189          48.500           0.000           0.000           0.000           0.000    19861817.263    82462899.156        1532.856          48.750  
E02  27758454.611   145871663.054       -3162.915          36.750    27758455.983   108930144.748       -2361.745          39.250    27758455.546   111771796.336       -2423.485          39.500  
E04  26853385.120   141115509.143       -1133.947          40.750    26853385.095   105378480.034        -846.554          47.500    26853384.833   108127476.709        -868.888          47.750  
E05  27409043.142   144035506.938        3228.688          39.750    27409047.189   107558988.359        2411.430          45.750    27409046.770   110364872.700        2473.781          45.750  
E09  25646148.225   134771420.109        1515.020          45.250    25646147.742   100640992.812        1131.580          48.750    25646147.733   103266407.663        1160.913          49.000  
E15  27259743.153   143250913.866        2705.334          32.000    27259744.095   106973092.364        2020.040          35.000    27259743.954   109763692.457        2072.640          36.750  
E27  26343307.760          -0.000           0.000          28.000    26343302.394   103376776.941         794.443          36.000    26343302.434   106073563.156         814.913          35.250  
E30  25646183.539   134771599.010       -1735.142          40.000    25646182.148   100641127.822       -1296.154          43.250    25646182.262   103266549.210       -1329.529          44.250  
C02  38886222.203   202490765.059         140.297          40.000           0.000           0.000           0.000           0.000    38886204.214   156578629.575         108.392          45.250           0.000           0.000           0.000           0.000    38886208.068   164540272.810         113.820          41.750           0.000           0.000           0.000           0.000  
C03  39056310.353   203376458.989         116.990          42.250           0.000           0.000           0.000           0.000    39056293.906   157263510.547          90.315          45.250           0.000           0.000           0.000           0.000    39056295.940   165259970.276          94.994          43.250           0.000           0.000           0.000           0.000  
C05  39389420.831   205111045.646         145.695          38.500           0.000           0.000           0.000           0.000    39389404.291   158604805.696         112.124          41.750           0.000           0.000           0.000           0.000    39389406.910   166669471.287         118.609          40.500           0.000           0.000           0.000           0.000  
C07  40383504.190   210287505.973       -1495.939          38.250           0.000           0.000           0.000           0.000    40383488.821   162607576.161       -1157.153          43.000           0.000           0.000           0.000           0.000    40383487.389   170875749.836       -1215.969          39.750           0.000           0.000           0.000           0.000  
C08  35781450.972   186323405.580          12.121          46.750           0.000           0.000           0.000           0.000    35781431.540   144076998.063           9.658          50.000           0.000           0.000           0.000           0.000    35781432.089   151402950.453           9.773          48.500           0.000           0.000           0.000           0.000  
C10  39109524.613   203653551.306       -1452.750          39.000           0.000           0.000           0.000           0.000    39109510.728   157477791.383       -1123.251          44.750           0.000           0.000           0.000           0.000    39109509.360   165485131.137       -1180.452          42.000           0.000           0.000           0.000           0.000  
C11  22229266.942   115753626.612        1824.613          42.500           0.000           0.000           0.000           0.000    22229250.552    89507979.599        1410.783          47.250           0.000           0.000           0.000           0.000    22229250.478    94059233.812        1483.015          45.500           0.000           0.000           0.000           0.000  
C12  21784209.342   113436095.980       -1264.219          47.500           0.000           0.000           0.000           0.000    21784193.421    87715919.558        -977.534          54.250           0.000           0.000           0.000           0.000    21784193.891    92176052.866       -1027.113          53.250           0.000           0.000           0.000           0.000  
C13  35947756.141   187189401.264         296.089          48.750           0.000           0.000           0.000           0.000    35947744.299   144746670.022         229.180          48.750           0.000           0.000           0.000           0.000    35947743.954   152106667.442         240.465          48.500           0.000           0.000           0.000           0.000  
C21  23283209.239   121241781.144        2373.477          49.500           0.000           0.000           0.000           0.000           0.000           0.000           0.000           0.000           0.000           0.000           0.000           0.000    23283191.901    98518802.523        1929.005          50.750           0.000           0.000           0.000           0.000  
C22  23054031.271   120048393.909        -843.252          51.250           0.000           0.000           0.000           0.000           0.000           0.000           0.000           0.000           0.000           0.000           0.000           0.000    23054013.005    97549073.065        -685.322          52.500           0.000           0.000           0.000           0.000  
C23  25927948.400          -0.000           0.000          32.500           0.000           0.000           0.000           0.000           0.000           0.000           0.000           0.000           0.000           0.000           0.000           0.000    25927925.006          -0.000           0.000          30.750           0.000           0.000           0.000           0.000  
C34  21575396.159   112348758.194         522.602          49.250           0.000           0.000           0.000           0.000           0.000           0.000           0.000           0.000           0.000           0.000           0.000           0.000    21575383.210    91292507.326         424.755          50.000           0.000           0.000           0.000           0.000  
> 2023  9  8  1 50 28.0000000  0 30
G05  20423451.562   107325961.906        1129.581          47.500           0.000           0.000           0.000           0.000    20423449.903    83630613.008         880.461          49.250           0.000           0.000           0.000           0.000           0.000           0.000           0.000           0.000           0.000           0.000           0.000           0.000  
G11  22286117.046   117114334.738       -2621.617          46.500           0.000           0.000           0.000           0.000    22286117.462    91257924.297       -2042.750          43.500           0.000           0.000           0.000           0.000           0.000           0.000           0.000           0.000           0.000           0.000           0.000           0.000  
G18  24419125.759          -0.000           0.000          32.000           0.000           0.000           0.000           0.000    24419129.411          -0.000           0.000          32.250           0.000           0.000           0.000           0.000           0.000           0.000           0.000           0.000    24419126.687          -0.000           0.000          34.750  
G20  20804149.923   109326542.287       -1253.093          48.750           0.000           0.000           0.000           0.000    20804149.037    85189512.880        -976.438          45.250           0.000           0.000           0.000           0.000           0.000           0.000           0.000           0.000           0.000           0.000           0.000           0.000  
G25  23308245.312   122485659.442       -3237.631          37.250           0.000           0.000           0.000           0.000    23308247.359    95443380.959       -2522.804          37.500           0.000           0.000           0.000           0.000           0.000           0.000           0.000           0.000    23308244.298    91466556.882       -2418.089          41.250  
G29  20775707.567   109177082.243        1206.879          42.750           0.000           0.000           0.000           0.000    20775705.432    85073036.789         940.425          42.750           0.000           0.000           0.000           0.000           0.000           0.000           0.000           0.000           0.000           0.000           0.000           0.000  
R07  22547171.265   120696769.950        4497.724          44.000           0.000           0.000           0.000           0.000    22547158.420    93875213.284        3498.120          46.750  
R12  22547628.373   120445376.044       -3164.124          41.000           0.000           0.000           0.000           0.000    22547621.305    93679711.661       -2461.323          39.750  
R20  24135855.882   129065258.664       -3659.573          37.750           0.000           0.000           0.000           0.000    24135849.485   100384066.826       -2846.533          39.000  
R22  19861454.939   106021793.633        1970.803          48.500           0.000           0.000           0.000           0.000    19861447.388    82461364.157        1532.901          49.250  
E02  27759056.567   145874826.481       -3163.876          35.750    27759057.989   108932507.098       -2363.014          37.000    27759057.535   111774220.289       -2424.161          37.000  
E04  26853600.576   141116641.680       -1133.947          41.000    26853600.461   105379325.702        -846.688          47.750    26853600.284   108128344.442        -868.396          47.750  
E05  27408428.729   144032278.152        3227.146          38.000    27408432.787   107556577.298        2409.921          45.500    27408432.363   110362398.711        2472.832          45.500  
E09  25645859.580   134769903.270        1514.142          44.750    25645859.099   100639860.085        1131.111          49.250    25645859.081   103265245.418        1160.270          49.500  
E15  27259228.448   143248208.616        2705.412          29.500    27259230.634          -0.000           0.000          32.500    27259229.184   109761619.644        2073.031          33.500  
E27  26343106.964   138433960.785        1062.151          29.000    26343099.955          -0.000           0.000          33.250    26343101.217          -0.000           0.000          32.500  
E30  25646513.540   134773333.161       -1736.142          38.500    25646512.156   100642422.825       -1296.931          41.250    25646512.262   103267877.981       -1330.139          42.750  
C02  38886195.116   202490624.065         138.705          40.250           0.000           0.000           0.000           0.000    38886177.130   156578520.535         107.565          45.000           0.000           0.000           0.000           0.000    38886180.990   164540158.221         113.038          41.500           0.000           0.000           0.000           0.000  
C03  39056287.764   203376341.405         115.901          42.250           0.000           0.000           0.000           0.000    39056271.320   157263419.627          89.091          45.500           0.000           0.000           0.000           0.000    39056273.358   165259874.731          94.011          43.500           0.000           0.000           0.000           0.000  
C05  39389392.805   205110899.688         144.248          37.250           0.000           0.000           0.000           0.000    39389376.265   158604692.832         111.627          40.750           0.000           0.000           0.000           0.000    39389378.882   166669352.669         117.816          39.250           0.000           0.000           0.000           0.000  
C07  40383791.610   210289002.604       -1498.180          37.500           0.000           0.000           0.000           0.000    40383776.223   162608733.395       -1157.991          43.250           0.000           0.000           0.000           0.000    40383774.793   170876965.932       -1216.935          40.000           0.000           0.000           0.000           0.000  
C08  35781448.023   186323390.238          11.563          46.750           0.000           0.000           0.000           0.000    35781428.593   144076986.174           9.334          50.000           0.000           0.000           0.000           0.000    35781429.147   151402937.962           9.544          48.250           0.000           0.000           0.000           0.000  
C10  39109803.572   203655003.856       -1454.270          39.500           0.000           0.000           0.000           0.000    39109789.693   157478914.601       -1124.340          44.750           0.000           0.000           0.000           0.000    39109788.317   165486311.473       -1181.726          42.250           0.000           0.000           0.000           0.000  
C11  22228916.059   115751799.508        1824.423          42.750           0.000           0.000           0.000           0.000    22228899.677    89506566.748        1410.548          47.500           0.000           0.000           0.000           0.000    22228899.601    94057749.129        1482.842          46.000           0.000           0.000           0.000           0.000  
C12  21784451.586   113437357.424       -1265.012          47.500           0.000           0.000           0.000           0.000    21784435.672    87716895.011        -978.328          54.500           0.000           0.000           0.000           0.000    21784436.146    92177077.913       -1028.058          53.250           0.000           0.000           0.000           0.000  
C13  35947698.699   187189102.150         295.508          48.500           0.000           0.000           0.000           0.000    35947686.856   144746438.710         228.784          48.750           0.000           0.000           0.000           0.000    35947686.517   152106424.375         240.203          48.000           0.000           0.000           0.000           0.000  
C21  23282753.058   121239405.717        2372.147          49.500           0.000           0.000           0.000           0.000           0.000           0.000           0.000           0.000           0.000           0.000           0.000           0.000    23282735.728    98516872.283        1928.010          50.500           0.000           0.000           0.000           0.000  
C22  23054192.784   120049234.942        -843.716          51.500           0.000           0.000           0.000           0.000           0.000           0.000           0.000           0.000           0.000           0.000           0.000           0.000    23054174.525    97549756.503        -685.992          52.750           0.000           0.000           0.000           0.000  
C23         0.000           0.000           0.000           0.000           0.000           0.000           0.000           0.000           0.000           0.000           0.000           0.000           0.000           0.000           0.000           0.000    25928220.647          -0.000           0.000          29.750           0.000           0.000           0.000           0.000  
C34  21575295.250   112348232.750         521.981          48.750           0.000           0.000           0.000           0.000           0.000           0.000           0.000           0.000           0.000           0.000           0.000           0.000    21575282.309    91292080.356         424.241          49.500           0.000           0.000           0.000           0.000  
> 2023  9  8  1 50 29.0000000  0 30
G05  20423236.007   107324829.130        1129.340          47.500           0.000           0.000           0.000           0.000    20423234.358    83629730.350         879.991          49.250           0.000           0.000           0.000           0.000           0.000           0.000           0.000           0.000           0.000           0.000           0.000           0.000  
G11  22286615.471   117116954.034       -2622.170          47.000           0.000           0.000           0.000           0.000    22286615.914    91259965.338       -2043.203          43.500           0.000           0.000           0.000           0.000           0.000           0.000           0.000           0.000           0.000           0.000           0.000           0.000  
G18  24418473.803          -0.000           0.000          31.000           0.000           0.000           0.000           0.000    24418471.088          -0.000           0.000          31.500           0.000           0.000           0.000           0.000           0.000           0.000           0.000           0.000    24418475.628          -0.000           0.000          32.500  
G20  20804387.816   109327792.415       -1253.747          48.500           0.000           0.000           0.000           0.000    20804386.941    85190487.010        -976.947          45.000           0.000           0.000           0.000           0.000           0.000           0.000           0.000           0.000           0.000           0.000           0.000           0.000  
G25  23308861.285   122488896.395       -3237.452          38.000           0.000           0.000           0.000           0.000    23308863.377    95445903.258       -2522.715          38.000           0.000           0.000           0.000           0.000           0.000           0.000           0.000           0.000    23308860.267    91468974.061       -2417.664          42.250  
G29  20775477.344   109175872.392        1206.504          43.000           0.000           0.000           0.000           0.000    20775475.199    85072094.072         939.995          42.500           0.000           0.000           0.000           0.000           0.000           0.000           0.000           0.000           0.000           0.000           0.000           0.000  
R07  22546330.809   120692271.215        4497.545          44.750           0.000           0.000           0.000           0.000    22546317.820    93871714.261        3498.226          47.750  
R12  22548220.412   120448539.489       -3164.481          41.500           0.000           0.000           0.000           0.000    22548213.973    93682172.075       -2461.122          39.500  
R20  24136540.193   129068917.868       -3660.064          39.000           0.000           0.000           0.000           0.000    24136533.579   100386912.893       -2847.668          37.750  
R22  19861085.212   106019820.187        1970.463          49.250           0.000           0.000           0.000           0.000    19861077.753    82459829.267        1532.169          49.750  
E02  27759658.616   145877990.418       -3164.245          36.500    27759660.056   108934869.724       -2362.567          37.500    27759659.619   111776644.578       -2424.055          37.250  
E04  26853816.127   141117774.534       -1135.752          41.000    26853815.950   105380171.657        -847.728          46.500    26853815.799   108129212.470        -869.816          46.750  
E05  27407814.478   144029050.144        3226.632          38.000    27407818.513   107554166.781        2409.893          45.000    27407818.100   110359925.305        2472.893          45.250  
E09  25645571.096   134768387.282        1513.081          44.750    25645570.624   100638728.036        1130.038          49.250    25645570.598   103264083.830        1159.370          49.750  
E15  27258713.682   143245503.121        2706.580          29.000    27258716.300          -0.000           0.000          29.750    27258714.355   109759546.524        2073.311          31.750  
E27  26342906.200          -0.000           0.000          27.500    26342898.940          -0.000           0.000          31.750    26342900.101   106071941.674         811.622          29.750  
E30  25646843.599   134775067.508       -1735.985          38.250    25646842.203   100643717.985       -1296.774          40.750    25646842.316   103269206.939       -1330.340          42.000  
C02  38886168.135   202490483.559         138.856          40.500           0.000           0.000           0.000           0.000    38886150.147   156578411.898         107.520          45.750           0.000           0.000           0.000           0.000    38886154.021   164540044.083         112.854          42.000           0.000           0.000           0.000           0.000  
C03  39056265.302   203376224.523         115.252          42.250           0.000           0.000           0.000           0.000    39056248.863   157263329.250          88.940          45.500           0.000           0.000           0.000           0.000    39056250.913   165259779.739          94.045          44.000           0.000           0.000           0.000           0.000  
C05  39389364.821   205110754.007         144.852          38.250           0.000           0.000           0.000           0.000    39389348.291   158604580.184         112.074          41.250           0.000           0.000           0.000           0.000    39389350.916   166669234.321         117.626          39.250           0.000           0.000           0.000           0.000  
C07  40384079.165   210290499.945       -1497.638          38.250           0.000           0.000           0.000           0.000    40384063.768   162609891.219       -1157.913          44.000           0.000           0.000           0.000           0.000    40384062.346   170878182.645       -1217.092          40.750           0.000           0.000           0.000           0.000  
C08  35781445.083   186323374.935          11.501          47.000           0.000           0.000           0.000           0.000    35781425.659   144076974.350           9.049          50.000           0.000           0.000           0.000           0.000    35781426.209   151402925.537           9.516          48.500           0.000           0.000           0.000           0.000  
C10  39110082.659   203656457.073       -1454.466          39.500           0.000           0.000           0.000           0.000    39110068.784   157480038.324       -1124.720          45.250           0.000           0.000           0.000           0.000    39110067.399   165487492.351       -1181.916          42.750           0.000           0.000           0.000           0.000  
C11  22228565.163   115749972.353        1824.227          43.250           0.000           0.000           0.000           0.000    22228548.795    89505153.879        1410.386          47.750           0.000           0.000           0.000           0.000    22228548.717    94056264.431        1482.490          46.250           0.000           0.000           0.000           0.000  
C12  21784693.951   113438619.505       -1265.627          47.250           0.000           0.000           0.000           0.000    21784678.039    87717870.929        -978.886          54.250           0.000           0.000           0.000           0.000    21784678.520    92178103.458       -1028.371          53.250           0.000           0.000           0.000           0.000  
C13  35947641.269   187188803.113         295.363          48.750           0.000           0.000           0.000           0.000    35947629.437   144746207.494         228.521          48.750           0.000           0.000           0.000           0.000    35947629.095   152106181.384         240.169          48.000           0.000           0.000           0.000           0.000  
C21  23282297.052   121237031.199        2371.622          50.000           0.000           0.000           0.000           0.000           0.000           0.000           0.000           0.000           0.000           0.000           0.000           0.000    23282279.734    98514942.808        1927.172          51.000           0.000           0.000           0.000           0.000  
C22  23054354.442   120050076.725        -845.012          51.500           0.000           0.000           0.000           0.000           0.000           0.000           0.000           0.000           0.000           0.000           0.000           0.000    23054336.181    97550440.514        -686.847          52.250           0.000           0.000           0.000           0.000  
C23         0.000           0.000           0.000           0.000           0.000           0.000           0.000           0.000           0.000           0.000           0.000           0.000           0.000           0.000           0.000           0.000    25928516.281          -0.000           0.000          29.000           0.000           0.000           0.000           0.000  
C34  21575194.405   112347707.637         521.451          49.000           0.000           0.000           0.000           0.000           0.000           0.000           0.000           0.000           0.000           0.000           0.000           0.000    21575181.469    91291653.658         423.967          49.750           0.000           0.000           0.000           0.000  
> 2023  9  8  1 50 30.0000000  0 29
G05  20423020.830   107323698.357        1127.072          47.500           0.000           0.000           0.000           0.000    20423019.176    83628849.204         878.198          48.500           0.000           0.000           0.000           0.000           0.000           0.000           0.000           0.000           0.000           0.000           0.000           0.000  
G11  22287114.227   117119575.048       -2623.791          47.500           0.000           0.000           0.000           0.000    22287114.683    91262007.675       -2044.488          43.750           0.000           0.000           0.000           0.000           0.000           0.000           0.000           0.000           0.000           0.000           0.000           0.000  
G20  20804626.049   109329044.356       -1255.445          48.500           0.000           0.000           0.000           0.000    20804625.177    85191462.532        -978.271          44.750           0.000           0.000           0.000           0.000           0.000           0.000           0.000           0.000           0.000           0.000           0.000           0.000  
G25  23309477.542   122492134.786       -3239.257          37.000           0.000           0.000           0.000           0.000    23309479.610    95448426.652       -2523.586          36.500           0.000           0.000           0.000           0.000           0.000           0.000           0.000           0.000    23309476.515    91471392.339       -2418.871          41.750  
G29  20775247.411   109174664.094        1205.046          43.250           0.000           0.000           0.000           0.000    20775245.258    85071152.520         939.101          42.500           0.000           0.000           0.000           0.000           0.000           0.000           0.000           0.000           0.000           0.000           0.000           0.000  
R07  22545490.837   120687774.463        4494.572          45.000           0.000           0.000           0.000           0.000    22545477.866    93868216.766        3496.042          46.500  
R12         0.000           0.000           0.000           0.000           0.000           0.000           0.000           0.000    22548805.709    93684633.692       -2462.436          37.500  
R20  24137224.818   129072578.856       -3662.109          39.500           0.000           0.000           0.000           0.000    24137218.479   100389760.297       -2848.819          37.000  
R22  19860715.700   106017848.023        1969.244          50.000           0.000           0.000           0.000           0.000    19860708.357    82458295.338        1531.755          50.000  
E02  27760260.950   145881155.737       -3166.262          35.750    27760262.405   108937233.444       -2364.070          36.250    27760261.962   111779069.931       -2425.094          35.000  
E04  26854031.926   141118908.818       -1135.992          42.250    26854031.667   105381018.760        -849.086          46.000    26854031.573   108130081.624        -870.358          46.500  
E05  27407200.554   144025823.981        3224.637          37.000    27407204.583   107551757.618        2408.156          43.750    27407204.191   110357453.323        2470.675          43.750  
E09  25645282.992   134766873.260        1511.063          45.000    25645282.511   100637597.432        1128.568          49.000    25645282.480   103262923.698        1158.113          49.750  
E15  27258201.264          -0.000           0.000          27.250    27258205.124          -0.000           0.000          27.500    27258200.483          -0.000           0.000          29.750  
E27  26342698.526   138431816.472        1063.168          30.750    26342694.582          -0.000           0.000          32.500    26342697.249   106071126.629         812.751          32.750  
E30  25647173.935   134776803.296       -1737.768          36.750    25647172.515   100645014.195       -1297.132          38.250    25647172.638   103270536.999       -1331.463          39.500  
C02  38886141.464   202490344.631         137.062          40.250           0.000           0.000           0.000           0.000    38886123.457   156578304.452         105.838          43.750           0.000           0.000           0.000           0.000    38886127.345   164539931.175         111.283          40.500           0.000           0.000           0.000           0.000  
C03  39056243.172   203376109.316         113.744          41.250           0.000           0.000           0.000           0.000    39056226.714   157263240.118          87.403          44.500           0.000           0.000           0.000           0.000    39056228.782   165259686.095          92.217          43.250           0.000           0.000           0.000           0.000  
C05  39389337.093   205110609.649         143.410          37.250           0.000           0.000           0.000           0.000    39389320.582   158604468.553         110.884          39.250           0.000           0.000           0.000           0.000    39389323.195   166669116.990         116.469          37.250           0.000           0.000           0.000           0.000  
C07  40384367.038   210291999.050       -1500.393          37.750           0.000           0.000           0.000           0.000    40384351.640   162611050.375       -1159.779          43.500           0.000           0.000           0.000           0.000    40384350.225   170879400.734       -1219.226          40.750           0.000           0.000           0.000           0.000  
C08  35781442.376   186323360.836          10.870          47.000           0.000           0.000           0.000           0.000    35781422.951   144076963.445           8.496          50.250           0.000           0.000           0.000           0.000    35781423.504   151402914.093           8.376          48.000           0.000           0.000           0.000           0.000  
C10  39110362.073   203657911.989       -1456.997          39.500           0.000           0.000           0.000           0.000    39110348.197   157481163.348       -1126.375          43.750           0.000           0.000           0.000           0.000    39110346.796   165488674.569       -1183.738          41.500           0.000           0.000           0.000           0.000  
C11  22228214.491   115748146.367        1823.305          43.750           0.000           0.000           0.000           0.000    22228198.127    89503741.892        1409.794          47.750           0.000           0.000           0.000           0.000    22228198.054    94054780.641        1481.657          46.750           0.000           0.000           0.000           0.000  
C12  21784936.654   113439883.343       -1267.270          47.000           0.000           0.000           0.000           0.000    21784920.744    87718848.194        -979.887          54.250           0.000           0.000           0.000           0.000    21784921.229    92179130.414       -1029.812          53.000           0.000           0.000           0.000           0.000  
C13  35947584.074   187188505.295         294.508          48.500           0.000           0.000           0.000           0.000    35947572.247   144745977.204         227.834          48.250           0.000           0.000           0.000           0.000    35947571.908   152105939.389         239.342          47.500           0.000           0.000           0.000           0.000  
C21  23281841.425   121234658.640        2369.716          49.000           0.000           0.000           0.000           0.000           0.000           0.000           0.000           0.000           0.000           0.000           0.000           0.000    23281824.114    98513014.915        1925.535          50.000           0.000           0.000           0.000           0.000  
C22  23054516.448   120050920.310        -846.364          51.500           0.000           0.000           0.000           0.000           0.000           0.000           0.000           0.000           0.000           0.000           0.000           0.000    23054498.179    97551126.005        -688.227          52.250           0.000           0.000           0.000           0.000  
C23         0.000           0.000           0.000           0.000           0.000           0.000           0.000           0.000           0.000           0.000           0.000           0.000           0.000           0.000           0.000           0.000    25928811.670          -0.000           0.000          28.750           0.000           0.000           0.000           0.000  
C34  21575093.841   112347183.989         520.406          48.500           0.000           0.000           0.000           0.000           0.000           0.000           0.000           0.000           0.000           0.000           0.000           0.000    21575080.912    91291228.156         422.649          49.250           0.000           0.000           0.000           0.000  
> 2023  9  8  1 50 31.0000000  0 27
G05  20422805.855   107322568.659        1126.474          48.250           0.000           0.000           0.000           0.000    20422804.190    83627968.889         877.818          47.750           0.000           0.000           0.000           0.000           0.000           0.000           0.000           0.000           0.000           0.000           0.000           0.000  
G11  22287613.163   117122196.979       -2624.137          47.750           0.000           0.000           0.000           0.000    22287613.609    91264050.679       -2044.712          43.750           0.000           0.000           0.000           0.000           0.000           0.000           0.000           0.000           0.000           0.000           0.000           0.000  
G20  20804864.408   109330296.978       -1255.026          49.000           0.000           0.000           0.000           0.000    20804863.547    85192438.588        -977.947          45.250           0.000           0.000           0.000           0.000           0.000           0.000           0.000           0.000           0.000           0.000           0.000           0.000  
G25  23310093.877   122495373.605       -3238.917          36.000           0.000           0.000           0.000           0.000    23310095.981    95450950.426       -2524.687          35.750           0.000           0.000           0.000           0.000           0.000           0.000           0.000           0.000    23310092.847    91473810.927       -2419.100          41.250  
G29  20775017.410   109173455.461        1206.554          44.000           0.000           0.000           0.000           0.000    20775015.255    85070210.717         940.162          42.750           0.000           0.000           0.000           0.000           0.000           0.000           0.000           0.000           0.000           0.000           0.000           0.000  
R07  22544651.237   120683279.606        4492.063          44.500           0.000           0.000           0.000           0.000    22544638.134    93864720.797        3493.482          43.250  
R22  19860346.048   106015874.922        1971.815          50.750           0.000           0.000           0.000           0.000    19860338.802    82456760.698        1533.767          50.750  
E02  27760863.529   145884322.077       -3166.469          33.000    27760864.955   108939597.932       -2365.400          35.000    27760864.521   111781496.139       -2427.369          34.000  
E04  26854247.711   141120042.835       -1134.466          43.250    26854247.353   105381865.521        -847.387          46.750    26854247.319   108130950.494        -869.162          47.250  
E05  27406586.994   144022599.855        3222.167          37.000    27406591.023   107549349.907        2405.797          42.500    27406590.625   110354982.779        2468.406          42.750  
E09  25644995.156   134765360.634        1510.220          44.750    25644994.656   100636467.809        1127.803          49.000    25644994.625   103261764.627        1157.700          49.000  
E15  27257686.330          -0.000           0.000          27.500           0.000           0.000           0.000           0.000    27257685.914          -0.000           0.000          28.750  
E27  26342494.780   138430751.307        1066.241          37.500    26342492.382   103373597.141         795.215          38.750    26342493.135   106070310.352         816.271          40.500  
E30  25647504.222   134778538.793       -1734.834          33.250    25647502.782   100646310.126       -1295.282          36.500    25647502.865   103271866.717       -1328.837          36.750  
C02  38886115.054   202490207.088         135.665          38.750           0.000           0.000           0.000           0.000    38886097.038   156578198.138         103.692          41.250           0.000           0.000           0.000           0.000    38886100.939   164539819.397         110.060          38.500           0.000           0.000           0.000           0.000  
C03  39056221.380   203375995.817         111.330          41.250           0.000           0.000           0.000           0.000    39056204.923   157263152.403          85.548          43.750           0.000           0.000           0.000           0.000    39056206.991   165259593.889          90.317          41.750           0.000           0.000           0.000           0.000  
C05  39389309.491   205110465.921         142.426          35.750           0.000           0.000           0.000           0.000    39389292.988   158604357.423         111.068          38.000           0.000           0.000           0.000           0.000    39389295.601   166669000.249         116.379          35.500           0.000           0.000           0.000           0.000  
C07  40384655.254   210293499.958       -1502.667          38.000           0.000           0.000           0.000           0.000    40384639.882   162612210.975       -1162.171          42.000           0.000           0.000           0.000           0.000    40384638.464   170880620.334       -1222.071          39.750           0.000           0.000           0.000           0.000  
C08  35781439.654   186323346.668          11.758          47.250           0.000           0.000           0.000           0.000    35781420.226   144076952.448           9.446          50.000           0.000           0.000           0.000           0.000    35781420.770   151402902.546           9.683          48.000           0.000           0.000           0.000           0.000  
C10  39110641.808   203659368.593       -1458.679          39.250           0.000           0.000           0.000           0.000    39110627.925   157482289.665       -1128.280          41.000           0.000           0.000           0.000           0.000    39110626.529   165489858.186       -1185.906          38.750           0.000           0.000           0.000           0.000  
C11  22227863.632   115746319.372        1825.948          44.750           0.000           0.000           0.000           0.000    22227847.269    89502329.126        1411.761          48.250           0.000           0.000           0.000           0.000    22227847.200    94053296.048        1483.792          47.500           0.000           0.000           0.000           0.000  
C12  21785179.557   113441148.196       -1267.667          47.250           0.000           0.000           0.000           0.000    21785163.639    87719826.219        -980.082          54.250           0.000           0.000           0.000           0.000    21785164.135    92180158.198       -1030.427          53.000           0.000           0.000           0.000           0.000  
C13  35947526.878   187188207.446         295.536          48.000           0.000           0.000           0.000           0.000    35947515.046   144745746.866         228.845          47.500           0.000           0.000           0.000           0.000    35947514.713   152105697.360         240.052          47.000           0.000           0.000           0.000           0.000  
C21  23281386.137   121232287.853        2368.118          48.000           0.000           0.000           0.000           0.000           0.000           0.000           0.000           0.000           0.000           0.000           0.000           0.000    23281368.837    98511088.461        1924.099          49.000           0.000           0.000           0.000           0.000  
C22  23054678.593   120051764.635        -846.051          51.250           0.000           0.000           0.000           0.000           0.000           0.000           0.000           0.000           0.000           0.000           0.000           0.000    23054660.319    97551812.082        -687.613          52.500           0.000           0.000           0.000           0.000  
C23         0.000           0.000           0.000           0.000           0.000           0.000           0.000           0.000           0.000           0.000           0.000           0.000           0.000           0.000           0.000           0.000    25929107.651          -0.000           0.000          37.500           0.000           0.000           0.000           0.000  
C34  21574993.277   112346660.324         521.752          48.250           0.000           0.000           0.000           0.000           0.000           0.000           0.000           0.000           0.000           0.000           0.000           0.000    21574980.346    91290802.613         423.973          48.750           0.000           0.000           0.000           0.000  
> 2023  9  8  1 50 32.0000000  0 27
G05  20422591.001   107321439.563        1130.039          48.750           0.000           0.000           0.000           0.000    20422589.330    83627089.098         880.472          48.000           0.000           0.000           0.000           0.000           0.000           0.000           0.000           0.000           0.000           0.000           0.000           0.000  
G11  22288112.250   117124819.670       -2622.511          47.250           0.000           0.000           0.000           0.000    22288112.697    91266094.332       -2043.443          43.750           0.000           0.000           0.000           0.000           0.000           0.000           0.000           0.000           0.000           0.000           0.000           0.000  
G20  20805102.851   109331550.009       -1252.322          48.750           0.000           0.000           0.000           0.000    20805101.989    85193414.965        -975.835          45.250           0.000           0.000           0.000           0.000           0.000           0.000           0.000           0.000           0.000           0.000           0.000           0.000  
G25  23310710.193   122498612.292       -3236.899          36.000           0.000           0.000           0.000           0.000    23310712.280    95453474.023       -2522.251          34.750           0.000           0.000           0.000           0.000           0.000           0.000           0.000           0.000    23310709.169    91476229.462       -2417.781          38.500  
G29  20774787.255   109172246.035        1210.472          45.500           0.000           0.000           0.000           0.000    20774785.098    85069268.292         943.521          44.250           0.000           0.000           0.000           0.000           0.000           0.000           0.000           0.000           0.000           0.000           0.000           0.000  
R07  22543811.778   120678786.261        4493.315          44.250           0.000           0.000           0.000           0.000    22543798.574    93861225.987        3494.639          41.500  
R22  19859976.217   106013900.613        1975.592          51.500           0.000           0.000           0.000           0.000    19859969.012    82455225.100        1536.902          51.500  
E02  27761466.159   145887488.810       -3166.240          32.250    27761467.564   108941962.615       -2363.533          36.750    27761467.121   111783922.519       -2425.486          35.750  
E04  26854463.455   141121176.679       -1133.578          43.250    26854463.100   105382712.273        -847.063          47.750    26854463.085   108131819.353        -869.112          48.000  
E05  27405973.760   144019377.340        3222.469          38.500    27405977.803   107546943.525        2406.133          41.500    27405977.402   110352513.607        2468.875          41.500  
E09  25644707.531   134763849.211        1511.533          44.500    25644707.049   100635339.186        1128.870          48.500    25644707.018   103260606.576        1158.264          48.750  
E15  27257171.922   143237404.970        2715.062          29.500           0.000           0.000           0.000           0.000    27257172.620          -0.000           0.000          30.250  
E27  26342291.229   138429684.313        1068.337          42.500    26342289.183   103372800.354         797.584          45.250    26342289.692   106069492.751         818.736          45.750  
E30  25647834.284   134780273.194       -1731.856          34.250    25647832.857   100647605.312       -1293.299          40.000    25647832.917   103273195.680       -1326.959          40.000  
C02  38886088.800   202490070.346         137.358          38.000           0.000           0.000           0.000           0.000    38886070.769   156578092.406         106.173          41.500           0.000           0.000           0.000           0.000    38886074.702   164539708.341         111.585          38.000           0.000           0.000           0.000           0.000  
C03  39056199.864   203375883.764         112.654          41.750           0.000           0.000           0.000           0.000    39056183.406   157263065.741          86.744          43.000           0.000           0.000           0.000           0.000    39056185.467   165259502.830          91.144          40.500           0.000           0.000           0.000           0.000  
C05  39389281.903   205110322.267         145.410          35.750           0.000           0.000           0.000           0.000    39389265.401   158604246.293         112.437          39.750           0.000           0.000           0.000           0.000    39389267.986   166668883.414         118.363          35.750           0.000           0.000           0.000           0.000  
C07  40384943.755   210295002.367       -1502.589          39.500           0.000           0.000           0.000           0.000    40384928.426   162613372.818       -1162.232          40.500           0.000           0.000           0.000           0.000    40384926.995   170881841.212       -1220.791          37.500           0.000           0.000           0.000           0.000  
C08  35781436.833   186323331.976          15.949          47.500           0.000           0.000           0.000           0.000    35781417.411   144076941.096          12.380          50.500           0.000           0.000           0.000           0.000    35781417.952   151402890.624          13.064          48.500           0.000           0.000           0.000           0.000  
C10  39110921.797   203660826.452       -1457.668          38.500           0.000           0.000           0.000           0.000    39110907.916   157483416.996       -1127.330          40.250           0.000           0.000           0.000           0.000    39110906.514   165491042.835       -1184.475          38.750           0.000           0.000           0.000           0.000  
C11  22227512.524   115744491.057        1829.922          46.250           0.000           0.000           0.000           0.000    22227496.174    89500915.409        1414.370          49.250           0.000           0.000           0.000           0.000    22227496.094    94051810.381        1487.296          48.250           0.000           0.000           0.000           0.000  
C12  21785422.566   113442413.573       -1264.694          47.000           0.000           0.000           0.000           0.000    21785406.648    87720804.700        -978.104          54.500           0.000           0.000           0.000           0.000    21785407.142    92181186.417       -1027.281          53.250           0.000           0.000           0.000           0.000  
C13  35947469.581   187187909.060         299.481          48.000           0.000           0.000           0.000           0.000    35947457.748   144745516.119         231.946          47.750           0.000           0.000           0.000           0.000    35947457.409   152105454.881         243.695          47.000           0.000           0.000           0.000           0.000  
C21  23280931.074   121229918.216        2370.415          48.000           0.000           0.000           0.000           0.000           0.000           0.000           0.000           0.000           0.000           0.000           0.000           0.000    23280913.786    98509162.955        1926.055          50.000           0.000           0.000           0.000           0.000  
C22  23054840.861   120052609.607        -844.576          51.250           0.000           0.000           0.000           0.000           0.000           0.000           0.000           0.000           0.000           0.000           0.000           0.000    23054822.581    97552498.656        -686.143          52.000           0.000           0.000           0.000           0.000  
C23         0.000           0.000           0.000           0.000           0.000           0.000           0.000           0.000           0.000           0.000           0.000           0.000           0.000           0.000           0.000           0.000    25929401.324          -0.000           0.000          42.250           0.000           0.000           0.000           0.000  
C34  21574892.608   112346136.108         525.904          49.000           0.000           0.000           0.000           0.000           0.000           0.000           0.000           0.000           0.000           0.000           0.000           0.000    21574879.688    91290376.683         427.097          49.500           0.000           0.000           0.000           0.000  
> 2023  9  8  1 50 33.0000000  0 28
G05  20422376.158   107320310.546        1130.905          48.250           0.000           0.000           0.000           0.000    20422374.485    83626209.277         881.746          47.250           0.000           0.000           0.000           0.000           0.000           0.000           0.000           0.000           0.000           0.000           0.000           0.000  
G11  22288611.415   117127442.756       -2620.936          48.750           0.000           0.000           0.000           0.000    22288611.838    91268138.216       -2042.292          44.250           0.000           0.000           0.000           0.000           0.000           0.000           0.000           0.000           0.000           0.000           0.000           0.000  
G18         0.000           0.000           0.000           0.000           0.000           0.000           0.000           0.000           0.000           0.000           0.000           0.000           0.000           0.000           0.000           0.000           0.000           0.000           0.000           0.000    24415865.619    95813100.866        2560.650          35.500  
G20  20805341.385   109332803.518       -1251.176          49.000           0.000           0.000           0.000           0.000    20805340.497    85194391.627        -974.767          45.500           0.000           0.000           0.000           0.000           0.000           0.000           0.000           0.000           0.000           0.000           0.000           0.000  
G25  23311326.403   122501850.459       -3238.441          34.500           0.000           0.000           0.000           0.000    23311328.413    95455997.264       -2523.559          35.250           0.000           0.000           0.000           0.000           0.000           0.000           0.000           0.000    23311325.332    91478647.421       -2416.306          34.250  
G29  20774557.103   109171036.611        1211.181          43.000           0.000           0.000           0.000           0.000    20774554.944    85068325.829         944.532          42.000           0.000           0.000           0.000           0.000           0.000           0.000           0.000           0.000           0.000           0.000           0.000           0.000  
R07  22542972.302   120674292.511        4495.220          45.500           0.000           0.000           0.000           0.000    22542959.100    93857730.923        3495.287          47.750  
R22  19859606.382   106011926.356        1975.995          49.500           0.000           0.000           0.000           0.000    19859599.181    82453689.533        1536.779          49.750  
E02  27762068.650   145890654.747       -3167.374          36.250    27762070.011   108944326.663       -2364.042          40.000    27762069.549   111786348.254       -2425.866          40.000  
E04  26854679.405   141122311.563       -1132.505          42.000    26854679.039   105383559.678        -846.381          44.750    26854679.032   108132688.866        -868.614          45.750  
E05  27405360.475   144016154.616        3221.938          40.250    27405364.522   107544536.901        2407.161          46.250    27405364.131   110350044.206        2469.976          46.000  
E09  25644420.025   134762338.398        1512.500          46.500    25644419.540   100634210.931        1129.597          50.250    25644419.502   103259448.878        1159.242          50.750  
E15  27256655.055          -0.000           0.000          28.500           0.000           0.000           0.000           0.000    27256655.989          -0.000           0.000          27.500  
E27  26342087.728   138428617.583        1068.644          38.250    26342086.028   103372003.736         797.467          42.250    26342086.534   106068675.405         817.557          42.750  
E30  25648164.304   134782007.271       -1733.577          36.500    25648162.829   100648900.122       -1294.098          41.000    25648162.899   103274524.315       -1328.160          41.250  
C02  38886062.417   202489932.931         138.509          41.000           0.000           0.000           0.000           0.000    38886044.348   156577986.030         107.939          45.250           0.000           0.000           0.000           0.000    38886048.299   164539596.588         112.669          42.000           0.000           0.000           0.000           0.000  
C03  39056178.277   203375771.340         113.861          44.000           0.000           0.000           0.000           0.000    39056161.806   157262978.777          88.191          46.750           0.000           0.000           0.000           0.000    39056163.880   165259411.481          92.256          45.250           0.000           0.000           0.000           0.000  
C05  39389254.151   205110177.773         144.745          38.750           0.000           0.000           0.000           0.000    39389237.647   158604134.514         111.929          40.250           0.000           0.000           0.000           0.000    39389240.246   166668766.020         117.637          39.250           0.000           0.000           0.000           0.000  
C07  40385232.190   210296504.417       -1501.410          40.500           0.000           0.000           0.000           0.000    40385216.875   162614534.285       -1161.545          45.000           0.000           0.000           0.000           0.000    40385215.448   170883061.749       -1220.456          43.250           0.000           0.000           0.000           0.000  
C08  35781433.964   186323317.031          17.536          46.500           0.000           0.000           0.000           0.000    35781414.536   144076929.516          13.648          50.250           0.000           0.000           0.000           0.000    35781415.074   151402878.426          14.511          47.250           0.000           0.000           0.000           0.000  
C10  39111201.667   203662283.728       -1455.919          39.500           0.000           0.000           0.000           0.000    39111187.791   157484543.922       -1126.497          44.250           0.000           0.000           0.000           0.000    39111186.367   165492226.989       -1183.536          41.500           0.000           0.000           0.000           0.000  
C11  22227161.385   115742662.615        1829.681          43.000           0.000           0.000           0.000           0.000    22227145.018    89499501.403        1415.762          47.250           0.000           0.000           0.000           0.000    22227144.945    94050324.544        1486.972          44.500           0.000           0.000           0.000           0.000  
C12  21785665.578   113443678.973       -1262.939          48.250           0.000           0.000           0.000           0.000    21785649.650    87721783.152        -976.724          53.750           0.000           0.000           0.000           0.000    21785650.134    92182214.611       -1026.130          52.250           0.000           0.000           0.000           0.000  
C13  35947412.200   187187610.225         301.174          48.000           0.000           0.000           0.000           0.000    35947400.353   144745285.004         233.019          47.500           0.000           0.000           0.000           0.000    35947400.014   152105212.022         244.785          46.750           0.000           0.000           0.000           0.000  
C21  23280475.984   121227548.465        2371.365          50.000           0.000           0.000           0.000           0.000           0.000           0.000           0.000           0.000           0.000           0.000           0.000           0.000    23280458.697    98507237.316        1926.736          52.250           0.000           0.000           0.000           0.000  
C22  23055003.250   120053455.224        -843.688          51.750           0.000           0.000           0.000           0.000           0.000           0.000           0.000           0.000           0.000           0.000           0.000           0.000    23054984.972    97553185.772        -685.366          52.500           0.000           0.000           0.000           0.000  
C23  25929715.939          -0.000           0.000          36.750           0.000           0.000           0.000           0.000           0.000           0.000           0.000           0.000           0.000           0.000           0.000           0.000    25929694.495          -0.000           0.000          32.500           0.000           0.000           0.000           0.000  
C34  21574791.928   112345611.823         526.720          48.500           0.000           0.000           0.000           0.000           0.000           0.000           0.000           0.000           0.000           0.000           0.000           0.000    21574778.996    91289950.605         427.980          48.500           0.000           0.000           0.000           0.000  
> 2023  9  8  1 50 34.0000000  0 29
G05  20422161.592   107319182.993        1127.273          49.000           0.000           0.000           0.000           0.000    20422159.935    83625330.665         878.326          48.250           0.000           0.000           0.000           0.000           0.000           0.000           0.000           0.000           0.000           0.000           0.000           0.000  
G11  22289111.178   117130068.985       -2628.518          47.500           0.000           0.000           0.000           0.000    22289111.604    91270184.659       -2048.198          44.250           0.000           0.000           0.000           0.000           0.000           0.000           0.000           0.000           0.000           0.000           0.000           0.000  
G18         0.000           0.000           0.000           0.000           0.000           0.000           0.000           0.000           0.000           0.000           0.000           0.000           0.000           0.000           0.000           0.000           0.000           0.000           0.000           0.000    24415211.975    95810536.141        2563.696          41.000  
G20  20805580.384   109334059.462       -1257.826          48.750           0.000           0.000           0.000           0.000    20805579.501    85195370.318        -980.098          45.250           0.000           0.000           0.000           0.000           0.000           0.000           0.000           0.000           0.000           0.000           0.000           0.000  
G25  23311942.533   122505088.193       -3235.960          39.250           0.000           0.000           0.000           0.000    23311944.476    95458520.114       -2521.385          40.750           0.000           0.000           0.000           0.000           0.000           0.000           0.000           0.000    23311941.451    91481065.218       -2416.060          44.000  
G29  20774327.024   109169827.557        1208.790          46.250           0.000           0.000           0.000           0.000    20774324.874    85067383.698         942.263          45.000           0.000           0.000           0.000           0.000           0.000           0.000           0.000           0.000           0.000           0.000           0.000           0.000  
R07  22542133.199   120669800.614        4492.611          47.500           0.000           0.000           0.000           0.000    22542119.981    93854237.109        3494.846          48.500  
R12         0.000           0.000           0.000           0.000           0.000           0.000           0.000           0.000    22551175.562    93694479.966       -2457.630          43.000  
R22  19859236.568   106009952.318        1973.787          51.500           0.000           0.000           0.000           0.000    19859229.395    82452154.140        1535.298          51.250  
E02  27762671.150   145893820.722       -3163.211          36.250    27762672.513   108946690.928       -2362.136          40.000    27762672.032   111788774.190       -2423.988          40.500  
E04  26854895.978   141123449.707       -1142.278          41.000    26854895.579   105384409.434        -852.103          45.000    26854895.579   108133560.796        -874.364          45.250  
E05  27404747.626   144012934.164        3220.268          39.750    27404751.678   107542131.990        2405.037          44.500    27404751.293   110347576.550        2467.886          45.250  
E09  25644133.182   134760831.056        1503.928          45.250    25644132.685   100633085.237        1124.059          49.500    25644132.653   103258293.849        1153.168          50.250  
E15  27256139.181   143231977.584        2711.950          37.000           0.000           0.000           0.000           0.000    27256140.012   109749182.431        2077.150          38.750  
E27  26341884.418   138427550.949        1066.510          39.500    26341882.962   103371207.208         796.092          42.250    26341883.448   106067858.056         817.350          43.000  
E30  25648494.187   134783740.647       -1731.794          41.250    25648492.702   100650194.543       -1293.153          45.250    25648492.763   103275852.492       -1326.791          45.500  
C02  38886036.195   202489796.349         137.531          41.250           0.000           0.000           0.000           0.000    38886018.121   156577880.438         106.458          46.500           0.000           0.000           0.000           0.000    38886022.081   164539485.620         112.088          43.250           0.000           0.000           0.000           0.000  
C03  39056157.099   203375661.045         110.162          42.750           0.000           0.000           0.000           0.000    39056140.618   157262893.463          85.358          46.750           0.000           0.000           0.000           0.000    39056142.695   165259321.830          89.909          44.500           0.000           0.000           0.000           0.000  
C05  39389226.369   205110033.105         146.433          39.000           0.000           0.000           0.000           0.000    39389209.866   158604022.614         113.650          42.750           0.000           0.000           0.000           0.000    39389212.459   166668648.427         119.643          41.750           0.000           0.000           0.000           0.000  
C07  40385520.975   210298008.275       -1502.952          40.000           0.000           0.000           0.000           0.000    40385505.650   162615697.055       -1162.070          43.750           0.000           0.000           0.000           0.000    40385504.234   170884283.662       -1221.160          42.250           0.000           0.000           0.000           0.000  
C08  35781431.274   186323303.017          13.317          46.750           0.000           0.000           0.000           0.000    35781411.837   144076918.648          10.217          50.250           0.000           0.000           0.000           0.000    35781412.388   151402867.043          10.544          48.000           0.000           0.000           0.000           0.000  
C10  39111481.829   203663742.536       -1457.779          41.500           0.000           0.000           0.000           0.000    39111467.909   157485671.845       -1127.151          45.000           0.000           0.000           0.000           0.000    39111466.487   165493412.298       -1184.475          42.250           0.000           0.000           0.000           0.000  
C11  22226810.199   115740833.939        1828.888          46.500           0.000           0.000           0.000           0.000    22226793.858    89498087.384        1414.091          50.000           0.000           0.000           0.000           0.000    22226793.772    94048838.620        1486.117          47.000           0.000           0.000           0.000           0.000  
C12  21785908.967   113444946.335       -1268.527          48.250           0.000           0.000           0.000           0.000    21785893.027    87722763.115        -980.948          54.000           0.000           0.000           0.000           0.000    21785893.507    92183244.418       -1030.377          52.500           0.000           0.000           0.000           0.000  
C13  35947354.924   187187311.929         298.145          48.750           0.000           0.000           0.000           0.000    35947343.065   144745054.329         230.527          48.750           0.000           0.000           0.000           0.000    35947342.731   152104969.635         242.119          47.500           0.000           0.000           0.000           0.000  
C21  23280021.262   121225180.622        2367.822          50.500           0.000           0.000           0.000           0.000           0.000           0.000           0.000           0.000           0.000           0.000           0.000           0.000    23280003.968    98505313.214        1924.026          52.250           0.000           0.000           0.000           0.000  
C22  23055166.219   120054303.872        -851.181          50.750           0.000           0.000           0.000           0.000           0.000           0.000           0.000           0.000           0.000           0.000           0.000           0.000    23055147.939    97553875.321        -691.575          52.500           0.000           0.000           0.000           0.000  
C23  25930011.714          -0.000           0.000          41.500           0.000           0.000           0.000           0.000           0.000           0.000           0.000           0.000           0.000           0.000           0.000           0.000    25929979.729          -0.000           0.000          37.000           0.000           0.000           0.000           0.000  
C34  21574691.366   112345088.158         523.451          50.250           0.000           0.000           0.000           0.000           0.000           0.000           0.000           0.000           0.000           0.000           0.000           0.000    21574678.426    91289525.041         425.303          50.000           0.000           0.000           0.000           0.000  
> 2023  9  8  1 50 35.0000000  0 29
G05  20421947.553   107318058.204        1125.038          49.000           0.000           0.000           0.000           0.000    20421945.911    83624454.227         876.639          48.000           0.000           0.000           0.000           0.000           0.000           0.000           0.000           0.000           0.000           0.000           0.000           0.000  
G11  22289611.859   117132700.055       -2631.078          46.250           0.000           0.000           0.000           0.000    22289612.282    91272234.827       -2050.193          43.500           0.000           0.000           0.000           0.000           0.000           0.000           0.000           0.000           0.000           0.000           0.000           0.000  
G18         0.000           0.000           0.000           0.000           0.000           0.000           0.000           0.000           0.000           0.000           0.000           0.000           0.000           0.000           0.000           0.000           0.000           0.000           0.000           0.000    24414558.586    95807973.639        2562.422          44.250  
G20  20805820.359   109335320.531       -1261.234          48.250           0.000           0.000           0.000           0.000    20805819.474    85196352.979        -982.825          44.750           0.000           0.000           0.000           0.000           0.000           0.000           0.000           0.000           0.000           0.000           0.000           0.000  
G25  23312558.389   122508324.503       -3235.536          39.250           0.000           0.000           0.000           0.000    23312560.323    95461041.890       -2521.318          42.750           0.000           0.000           0.000           0.000           0.000           0.000           0.000           0.000    23312557.296    91483481.922       -2416.189          46.000  
G29  20774097.550   109168621.662        1205.593          47.750           0.000           0.000           0.000           0.000    20774095.415    85066444.047         939.352          46.750           0.000           0.000           0.000           0.000           0.000           0.000           0.000           0.000           0.000           0.000           0.000           0.000  
R07  22541293.941   120665307.793        4493.750          47.500           0.000           0.000           0.000           0.000    22541280.717    93850742.724        3495.187          46.250  
R12  22551772.351   120467532.648       -3162.470          50.750           0.000           0.000           0.000           0.000           0.000           0.000           0.000           0.000  
R22  19858867.479   106007982.192        1969.714          52.750           0.000           0.000           0.000           0.000    19858860.353    82450621.823        1531.968          52.750  
E02  27763273.179   145896984.256       -3162.870          37.500    27763274.525   108949053.291       -2361.539          41.000    27763274.036   111791198.175       -2423.027          40.750  
E04  26855113.812   141124594.421       -1146.341          40.250    26855113.419   105385264.288        -855.551          45.000    26855113.419   108134437.962        -877.885          45.250  
E05  27404134.774   144009713.650        3220.849          39.000    27404138.824   107539727.035        2405.602          42.750    27404138.453   110345108.892        2468.289          43.000  
E09  25643847.176   134759328.103        1502.223          44.000    25643846.692   100631962.924        1122.399          48.500    25643846.659   103257142.260        1151.520          49.250  
E15  27255623.449   143229268.109        2709.005          37.750    27255622.967   106956917.045        2023.163          41.000    27255624.065   109747106.221        2076.127          42.500  
E27  26341681.971   138426488.058        1061.469          41.750    26341680.670   103370413.481         792.979          43.750    26341681.139   106067043.654         813.712          44.750  
E30  25648824.137   134785474.396       -1734.091          43.500    25648822.641   100651489.248       -1294.735          47.000    25648822.695   103277180.962       -1328.378          47.000  
C02  38886009.763   202489658.656         138.945          41.750           0.000           0.000           0.000           0.000    38885991.677   156577773.966         107.442          45.750           0.000           0.000           0.000           0.000    38885995.642   164539373.726         112.954          43.000           0.000           0.000           0.000           0.000  
C03  39056135.975   203375551.033         111.045          42.000           0.000           0.000           0.000           0.000    39056119.487   157262808.365          85.878          46.250           0.000           0.000           0.000           0.000    39056121.568   165259232.425          90.222          43.250           0.000           0.000           0.000           0.000  
C05  39389198.221   205109886.531         147.646          39.750           0.000           0.000           0.000           0.000    39389181.733   158603909.289         114.052          44.500           0.000           0.000           0.000           0.000    39389184.317   166668529.322         119.822          42.750           0.000           0.000           0.000           0.000  
C07  40385809.556   210299511.052       -1501.645          39.250           0.000           0.000           0.000           0.000    40385794.244   162616859.094       -1161.416          42.000           0.000           0.000           0.000           0.000    40385792.832   170885504.786       -1220.132          41.250           0.000           0.000           0.000           0.000  
C08  35781429.316   186323292.821          10.255          46.750           0.000           0.000           0.000           0.000    35781409.877   144076910.753           7.965          50.750           0.000           0.000           0.000           0.000    35781410.430   151402858.741           8.387          48.500           0.000           0.000           0.000           0.000  
C10  39111761.799   203665200.345       -1456.712          41.500           0.000           0.000           0.000           0.000    39111747.870   157486799.115       -1126.408          43.500           0.000           0.000           0.000           0.000    39111746.440   165494596.881       -1183.665          42.250           0.000           0.000           0.000           0.000  
C11  22226459.583   115739008.222        1825.451          48.500           0.000           0.000           0.000           0.000    22226443.264    89496675.643        1411.560          51.500           0.000           0.000           0.000           0.000    22226443.159    94047355.063        1483.362          49.250           0.000           0.000           0.000           0.000  
C12  21786153.021   113446217.168       -1270.673          47.750           0.000           0.000           0.000           0.000    21786137.078    87723745.794        -982.502          53.750           0.000           0.000           0.000           0.000    21786137.564    92184277.106       -1032.478          52.500           0.000           0.000           0.000           0.000  
C13  35947298.192   187187016.473         295.597          49.250           0.000           0.000           0.000           0.000    35947286.326   144744825.863         228.655          49.500           0.000           0.000           0.000           0.000    35947285.990   152104729.528         240.309          48.500           0.000           0.000           0.000           0.000  
C21  23279566.818   121222814.206        2367.040          50.500           0.000           0.000           0.000           0.000           0.000           0.000           0.000           0.000           0.000           0.000           0.000           0.000    23279549.516    98503390.291        1923.373          51.750           0.000           0.000           0.000           0.000  
C22  23055330.269   120055158.133        -854.629          50.250           0.000           0.000           0.000           0.000           0.000           0.000           0.000           0.000           0.000           0.000           0.000           0.000    23055311.997    97554569.491        -694.480          52.000           0.000           0.000           0.000           0.000  
C23  25930305.095          -0.000           0.000          43.750           0.000           0.000           0.000           0.000           0.000           0.000           0.000           0.000           0.000           0.000           0.000           0.000           0.000           0.000           0.000           0.000           0.000           0.000           0.000           0.000  
C34  21574591.429   112344567.742         520.417          51.250           0.000           0.000           0.000           0.000           0.000           0.000           0.000           0.000           0.000           0.000           0.000           0.000    21574578.496    91289102.186         422.839          51.250           0.000           0.000           0.000           0.000  
> 2023  9  8  1 50 36.0000000  0 29
G05  20421733.834   107316935.087        1123.043          48.750           0.000           0.000           0.000           0.000    20421732.206    83623579.070         875.046          48.000           0.000           0.000           0.000           0.000           0.000           0.000           0.000           0.000           0.000           0.000           0.000           0.000  
G11  22290112.824   117135332.608       -2632.827          45.750           0.000           0.000           0.000           0.000    22290113.240    91274286.148       -2051.557          43.000           0.000           0.000           0.000           0.000           0.000           0.000           0.000           0.000           0.000           0.000           0.000           0.000  
G18         0.000           0.000           0.000           0.000           0.000           0.000           0.000           0.000    24413901.243    99970865.006        2672.869          38.250           0.000           0.000           0.000           0.000           0.000           0.000           0.000           0.000    24413905.710    95805412.440        2561.433          45.250  
G20  20806060.687   109336583.459       -1263.213          47.750           0.000           0.000           0.000           0.000    20806059.793    85197337.049        -984.295          44.500           0.000           0.000           0.000           0.000           0.000           0.000           0.000           0.000           0.000           0.000           0.000           0.000  
G25  23313174.488   122511562.097       -3237.268          40.750           0.000           0.000           0.000           0.000    23313176.437    95463564.670       -2522.586          42.250           0.000           0.000           0.000           0.000           0.000           0.000           0.000           0.000    23313173.385    91485899.599       -2417.507          46.250  
G29  20773868.479   109167417.881        1203.716          47.750           0.000           0.000           0.000           0.000    20773866.353    85065506.009         938.050          47.000           0.000           0.000           0.000           0.000           0.000           0.000           0.000           0.000           0.000           0.000           0.000           0.000  
R07  22540454.851   120660815.794        4492.152          46.500           0.000           0.000           0.000           0.000    22540441.616    93847248.961        3493.879          45.750  
R12  22552367.276   120470697.029       -3164.275          50.500           0.000           0.000           0.000           0.000    22552359.912    93699401.754       -2461.145          47.250  
R22  19858498.814   106006014.274        1967.926          53.000           0.000           0.000           0.000           0.000    19858491.717    82449091.224        1530.498          52.750  
E02  27763875.340   145900148.521       -3164.156          37.250    27763876.668   108951416.204       -2362.528          40.750    27763876.179   111793622.747       -2424.267          40.500  
E04  26855332.102   141125741.505       -1147.475          39.750    26855331.697   105386120.898        -856.981          45.000    26855331.714   108135316.907        -879.337          45.000  
E05  27403522.036   144006493.724        3219.960          38.250    27403526.090   107537322.552        2404.685          41.250    27403525.727   110342641.708        2467.182          41.750  
E09  25643561.470   134757826.725        1501.089          43.250    25643560.999   100630841.793        1120.941          48.250    25643560.962   103255991.874        1150.234          48.750  
E15  27255108.055   143226560.341        2707.781          39.000    27255107.448   106954895.023        2022.359          40.500    27255108.562   109745031.430        2074.993          43.000  
E27  26341480.101   138425427.759        1060.039          42.000    26341478.903   103369621.718         791.728          44.250    26341479.360   106066231.232         812.281          45.250  
E30  25649154.420   134787209.923       -1735.672          43.000    25649152.906   100652785.247       -1295.858          47.500    25649152.962   103278510.786       -1329.686          47.500  
C02  38885983.461   202489521.601         137.453          40.500           0.000           0.000           0.000           0.000    38885965.363   156577668.009         106.179          44.750           0.000           0.000           0.000           0.000    38885969.323   164539262.374         111.674          42.500           0.000           0.000           0.000           0.000  
C03  39056114.961   203375441.617         109.614          41.500           0.000           0.000           0.000           0.000    39056098.479   157262723.750          84.743          45.250           0.000           0.000           0.000           0.000    39056100.555   165259143.505          89.088          42.750           0.000           0.000           0.000           0.000  
C05  39389170.224   205109740.755         146.338          39.750           0.000           0.000           0.000           0.000    39389153.751   158603796.566         113.046          44.250           0.000           0.000           0.000           0.000    39389156.328   166668410.860         118.844          42.500           0.000           0.000           0.000           0.000  
C07  40386098.235   210301014.349       -1502.964          38.500           0.000           0.000           0.000           0.000    40386082.934   162618021.525       -1162.294          40.750           0.000           0.000           0.000           0.000    40386081.539   170886726.366       -1221.568          40.000           0.000           0.000           0.000           0.000  
C08  35781427.620   186323284.010           8.886          47.250           0.000           0.000           0.000           0.000    35781408.185   144076903.933           6.876          50.750           0.000           0.000           0.000           0.000    35781408.742   151402851.587           7.325          48.500           0.000           0.000           0.000           0.000  
C10  39112041.887   203666658.769       -1458.159          40.750           0.000           0.000           0.000           0.000    39112027.955   157487926.869       -1127.609          43.000           0.000           0.000           0.000           0.000    39112026.512   165495781.987       -1184.933          41.250           0.000           0.000           0.000           0.000  
C11  22226109.348   115737184.482        1823.747          48.750           0.000           0.000           0.000           0.000    22226093.049    89495265.421        1410.297          52.000           0.000           0.000           0.000           0.000    22226092.933    94045873.121        1482.054          50.000           0.000           0.000           0.000           0.000  
C12  21786397.348   113447489.447       -1272.338          47.250           0.000           0.000           0.000           0.000    21786381.407    87724729.601        -983.865          52.750           0.000           0.000           0.000           0.000    21786381.891    92185310.912       -1033.819          52.750           0.000           0.000           0.000           0.000  
C13  35947241.711   187186722.344         294.362          49.500           0.000           0.000           0.000           0.000    35947229.844   144744598.415         227.588          49.750           0.000           0.000           0.000           0.000    35947229.513   152104490.529         239.079          48.500           0.000           0.000           0.000           0.000  
C21  23279112.598   121220448.935        2365.274          50.250           0.000           0.000           0.000           0.000           0.000           0.000           0.000           0.000           0.000           0.000           0.000           0.000    23279095.290    98501468.331        1921.970          51.500           0.000           0.000           0.000           0.000  
C22  23055494.700   120056014.361        -856.646          50.000           0.000           0.000           0.000           0.000           0.000           0.000           0.000           0.000           0.000           0.000           0.000           0.000    23055476.433    97555265.257        -696.078          51.500           0.000           0.000           0.000           0.000  
C23  25930600.725          -0.000           0.000          44.000           0.000           0.000           0.000           0.000           0.000           0.000           0.000           0.000           0.000           0.000           0.000           0.000           0.000           0.000           0.000           0.000           0.000           0.000           0.000           0.000  
C34  21574491.838   112344049.128         518.645          51.250           0.000           0.000           0.000           0.000           0.000           0.000           0.000           0.000           0.000           0.000           0.000           0.000    21574478.906    91288680.757         421.414          52.000           0.000           0.000           0.000           0.000  
> 2023  9  8  1 50 37.0000000  0 29
G05  20421520.398   107315813.450        1120.902          49.000           0.000           0.000           0.000           0.000    20421518.790    83622705.066         873.409          48.250           0.000           0.000           0.000           0.000           0.000           0.000           0.000           0.000           0.000           0.000           0.000           0.000  
G11  22290614.019   117137966.346       -2634.313          46.000           0.000           0.000           0.000           0.000    22290614.436    91276338.431       -2052.714          42.750           0.000           0.000           0.000           0.000           0.000           0.000           0.000           0.000           0.000           0.000           0.000           0.000  
G18  24413252.481   128292495.272        3428.318          39.250           0.000           0.000           0.000           0.000    24413252.173    99968193.198        2671.349          39.000           0.000           0.000           0.000           0.000           0.000           0.000           0.000           0.000    24413253.053    95802851.965        2560.097          45.250  
G20  20806301.284   109337847.808       -1265.096          47.750           0.000           0.000           0.000           0.000    20806300.393    85198322.264        -985.776          45.000           0.000           0.000           0.000           0.000           0.000           0.000           0.000           0.000           0.000           0.000           0.000           0.000  
G25  23313790.794   122514800.775       -3239.196          41.500           0.000           0.000           0.000           0.000    23313792.779    95466088.310       -2524.062          42.250           0.000           0.000           0.000           0.000           0.000           0.000           0.000           0.000    23313789.680    91488318.099       -2418.999          46.500  
G29  20773639.680   109166215.520        1201.615          48.000           0.000           0.000           0.000           0.000    20773637.572    85064569.108         936.335          46.750           0.000           0.000           0.000           0.000           0.000           0.000           0.000           0.000           0.000           0.000           0.000           0.000  
R07  22539615.983   120656324.937        4490.135          46.250           0.000           0.000           0.000           0.000    22539602.735    93843756.080        3492.348          45.750  
R12  22552959.976   120473862.835       -3166.655          50.750           0.000           0.000           0.000           0.000    22552952.547    93701864.050       -2462.860          47.250  
R22  19858130.428   106004047.728        1965.903          53.000           0.000           0.000           0.000           0.000    19858123.325    82447561.688        1528.990          52.750  
E02  27764477.655   145903313.618       -3165.781          37.000    27764478.966   108953779.737       -2363.902          40.500    27764478.468   111796047.951       -2425.748          40.500  
E04  26855550.674   141126890.093       -1149.442          40.000    26855550.243   105386978.586        -858.049          45.000    26855550.296   108136196.979        -880.533          45.000  
E05  27402909.488   144003274.784        3218.138          38.500    27402913.540   107534918.805        2403.361          41.250    27402913.184   110340175.246        2465.947          41.750  
E09  25643276.034   134756326.761        1499.055          43.250    25643275.569   100629721.686        1119.544          48.500    25643275.528   103254842.549        1148.770          49.000  
E15  27254592.861   143223853.511        2706.032          39.250    27254592.492   106952873.691        2020.900          41.000    27254593.282   109742957.368        2073.613          43.000  
E27  26341278.539   138424368.908        1057.893          42.000    26341277.417   103368831.022         790.158          44.250    26341277.875   106065419.898         810.823          45.250  
E30  25649484.935   134788946.699       -1737.673          42.500    25649483.412   100654082.194       -1297.478          48.000    25649483.470   103279841.569       -1331.295          48.000  
C02  38885957.317   202489385.382         135.816          39.750           0.000           0.000           0.000           0.000    38885939.206   156577562.684         104.910          44.000           0.000           0.000           0.000           0.000    38885943.156   164539151.679         110.350          42.000           0.000           0.000           0.000           0.000  
C03  39056094.110   203375333.059         107.876          41.250           0.000           0.000           0.000           0.000    39056077.640   157262639.802          83.514          45.000           0.000           0.000           0.000           0.000    39056079.712   165259055.292          87.775          42.250           0.000           0.000           0.000           0.000  
C05  39389142.383   205109595.811         144.438          39.500           0.000           0.000           0.000           0.000    39389125.930   158603684.487         111.666          44.500           0.000           0.000           0.000           0.000    39389128.506   166668293.081         117.352          42.250           0.000           0.000           0.000           0.000  
C07  40386387.089   210302518.555       -1504.646          38.000           0.000           0.000           0.000           0.000    40386371.807   162619184.677       -1163.657          40.250           0.000           0.000           0.000           0.000    40386370.417   170887948.640       -1222.579          39.000           0.000           0.000           0.000           0.000  
C08  35781426.096   186323276.112           7.567          47.250           0.000           0.000           0.000           0.000    35781406.673   144076897.826           5.764          50.750           0.000           0.000           0.000           0.000    35781407.226   151402845.184           6.007          48.500           0.000           0.000           0.000           0.000  
C10  39112322.151   203668118.100       -1459.864          40.250           0.000           0.000           0.000           0.000    39112308.213   157489055.315       -1128.861          42.750           0.000           0.000           0.000           0.000    39112306.751   165496967.802       -1186.101          40.000           0.000           0.000           0.000           0.000  
C11  22225759.340   115735361.911        1821.897          48.500           0.000           0.000           0.000           0.000    22225743.060    89493856.092        1408.889          52.250           0.000           0.000           0.000           0.000    22225742.934    94044392.140        1480.462          50.000           0.000           0.000           0.000           0.000  
C12  21786641.907   113448762.953       -1274.177          47.250           0.000           0.000           0.000           0.000    21786625.969    87725714.359        -985.251          52.500           0.000           0.000           0.000           0.000    21786626.465    92186345.743       -1035.344          53.000           0.000           0.000           0.000           0.000  
C13  35947185.404   187186429.131         292.653          49.500           0.000           0.000           0.000           0.000    35947173.544   144744371.683         226.347          49.750           0.000           0.000           0.000           0.000    35947173.211   152104252.278         237.861          48.500           0.000           0.000           0.000           0.000  
C21  23278658.623   121218084.944        2363.234          50.000           0.000           0.000           0.000           0.000           0.000           0.000           0.000           0.000           0.000           0.000           0.000           0.000    23278641.313    98499547.397        1920.338          51.250           0.000           0.000           0.000           0.000  
C22  23055659.417   120056872.071        -858.445          50.000           0.000           0.000           0.000           0.000           0.000           0.000           0.000           0.000           0.000           0.000           0.000           0.000    23055641.152    97555962.220        -697.593          51.250           0.000           0.000           0.000           0.000  
C23  25930896.836          -0.000           0.000          43.500           0.000           0.000           0.000           0.000           0.000           0.000           0.000           0.000           0.000           0.000           0.000           0.000    25930877.779          -0.000           0.000          43.500           0.000           0.000           0.000           0.000  
C34  21574392.487   112343531.769         516.667          51.250           0.000           0.000           0.000           0.000           0.000           0.000           0.000           0.000           0.000           0.000           0.000           0.000    21574379.563    91288260.363         419.838          52.000           0.000           0.000           0.000           0.000  
> 2023  9  8  1 50 38.0000000  0 29
G05  20421307.402   107314694.117        1119.500          49.000           0.000           0.000           0.000           0.000    20421305.816    83621832.857         872.325          48.250           0.000           0.000           0.000           0.000           0.000           0.000           0.000           0.000           0.000           0.000           0.000           0.000  
G11  22291115.584   117140602.022       -2635.252          46.000           0.000           0.000           0.000           0.000    22291115.998    91278392.203       -2053.446          42.500           0.000           0.000           0.000           0.000           0.000           0.000           0.000           0.000           0.000           0.000           0.000           0.000  
G18  24412599.683   128289068.228        3427.625          39.000           0.000           0.000           0.000           0.000    24412616.658    99965522.772        2670.824          39.500           0.000           0.000           0.000           0.000           0.000           0.000           0.000           0.000    24412600.760    95800292.806        2559.549          45.500  
G20  20806542.296   109339114.344       -1266.280          47.750           0.000           0.000           0.000           0.000    20806541.407    85199309.177        -986.692          44.750           0.000           0.000           0.000           0.000           0.000           0.000           0.000           0.000           0.000           0.000           0.000           0.000  
G25  23314407.476   122518041.416       -3240.146          41.500           0.000           0.000           0.000           0.000    23314409.497    95468613.494       -2524.933          42.250           0.000           0.000           0.000           0.000           0.000           0.000           0.000           0.000    23314406.345    91490738.051       -2419.625          46.750  
G29  20773411.303   109165015.390        1200.363          48.000           0.000           0.000           0.000           0.000    20773409.221    85063633.940         935.407          46.750           0.000           0.000           0.000           0.000           0.000           0.000           0.000           0.000           0.000           0.000           0.000           0.000  
R07  22538777.481   120651836.072        4489.230          46.000           0.000           0.000           0.000           0.000    22538764.231    93840264.748        3491.638          45.500  
R12  22553553.168   120477030.905       -3167.722          50.750           0.000           0.000           0.000           0.000    22553545.576    93704328.100       -2463.777          47.250  
R22  19857762.461   106002083.330        1964.634          53.000           0.000           0.000           0.000           0.000    19857755.345    82446033.818        1528.101          52.750  
E02  27765080.297   145906480.452       -3166.687          37.000    27765081.594   108956144.568       -2364.305          40.500    27765081.073   111798474.452       -2426.100          40.250  
E04  26855769.655   141128040.812       -1150.867          40.000    26855769.199   105387837.893        -859.161          45.000    26855769.288   108137078.688        -881.533          45.250  
E05  27402297.279   144000057.615        3217.205          38.250    27402301.320   107532516.364        2402.853          41.000    27402300.976   110337710.132        2465.366          41.750  
E09  25642991.000   134754828.919        1497.753          43.250    25642990.541   100628603.160        1118.734          48.500    25642990.497   103253694.845        1147.899          49.000  
E15  27254078.032   143221148.430        2705.127          39.500    27254077.830   106950853.664        2020.297          41.500    27254078.381   109740884.641        2073.082          43.500  
E27  26341077.405   138423312.204        1056.619          42.250    26341076.336   103368041.918         789.241          44.250    26341076.810   106064610.217         809.873          45.500  
E30  25649815.843   134790685.564       -1738.969          42.250    25649814.311   100655380.681       -1298.266          48.000    25649814.371   103281173.927       -1332.078          48.000  
C02  38885931.490   202489250.817         135.006          39.750           0.000           0.000           0.000           0.000    38885913.364   156577458.626         104.441          44.000           0.000           0.000           0.000           0.000    38885917.310   164539042.341         109.819          41.750           0.000           0.000           0.000           0.000  
C03  39056073.574   203375226.157         107.586          41.250           0.000           0.000           0.000           0.000    39056057.125   157262557.152          82.994          45.000           0.000           0.000           0.000           0.000    39056059.188   165258968.429          87.400          42.250           0.000           0.000           0.000           0.000  
C05  39389114.858   205109452.534         143.773          39.500           0.000           0.000           0.000           0.000    39389098.429   158603573.692         111.169          44.500           0.000           0.000           0.000           0.000    39389101.005   166668176.643         116.927          42.250           0.000           0.000           0.000           0.000  
C07  40386676.274   210304024.480       -1505.629          38.250           0.000           0.000           0.000           0.000    40386661.009   162620349.129       -1163.953          40.250           0.000           0.000           0.000           0.000    40386659.629   170889172.310       -1223.272          38.500           0.000           0.000           0.000           0.000  
C08  35781424.902   186323269.949           6.595          47.250           0.000           0.000           0.000           0.000    35781405.492   144076893.056           5.127          50.750           0.000           0.000           0.000           0.000    35781406.036   151402840.168           5.381          48.250           0.000           0.000           0.000           0.000  
C10  39112602.745   203669579.151       -1460.568          40.500           0.000           0.000           0.000           0.000    39112588.806   157490185.093       -1129.347          42.750           0.000           0.000           0.000           0.000    39112587.325   165498155.040       -1186.794          39.500           0.000           0.000           0.000           0.000  
C11  22225409.709   115733541.303        1820.925          48.500           0.000           0.000           0.000           0.000    22225393.449    89492448.282        1408.073          52.500           0.000           0.000           0.000           0.000    22225393.312    94042912.752        1479.635          50.000           0.000           0.000           0.000           0.000  
C12  21786886.856   113450038.497       -1275.255          47.250           0.000           0.000           0.000           0.000    21786870.918    87726700.690        -986.073          52.500           0.000           0.000           0.000           0.000    21786871.431    92187382.219       -1036.160          53.000           0.000           0.000           0.000           0.000  
C13  35947129.427   187186137.648         291.943          49.750           0.000           0.000           0.000           0.000    35947117.579   144744146.291         225.716          49.750           0.000           0.000           0.000           0.000    35947117.239   152104015.425         237.168          48.250           0.000           0.000           0.000           0.000  
C21  23278205.051   121215723.063        2362.206          50.000           0.000           0.000           0.000           0.000           0.000           0.000           0.000           0.000           0.000           0.000           0.000           0.000    23278187.743    98497628.173        1919.483          51.000           0.000           0.000           0.000           0.000  
C22  23055824.562   120057732.002        -859.714          50.000           0.000           0.000           0.000           0.000           0.000           0.000           0.000           0.000           0.000           0.000           0.000           0.000    23055806.297    97556660.979        -698.554          51.000           0.000           0.000           0.000           0.000  
C23  25931193.317          -0.000           0.000          43.500           0.000           0.000           0.000           0.000           0.000           0.000           0.000           0.000           0.000           0.000           0.000           0.000    25931174.290          -0.000           0.000          43.250           0.000           0.000           0.000           0.000  
C34  21574293.533   112343016.478         515.566          51.250           0.000           0.000           0.000           0.000           0.000           0.000           0.000           0.000           0.000           0.000           0.000           0.000    21574280.617    91287841.645         418.989          52.250           0.000           0.000           0.000           0.000  
> 2023  9  8  1 50 39.0000000  0 29
G05  20421094.784   107313576.770        1117.181          49.000           0.000           0.000           0.000           0.000    20421093.219    83620962.201         870.475          48.000           0.000           0.000           0.000           0.000           0.000           0.000           0.000           0.000           0.000           0.000           0.000           0.000  
G11  22291617.454   117143239.303       -2637.314          46.000           0.000           0.000           0.000           0.000    22291617.870    91280447.234       -2055.049          42.500           0.000           0.000           0.000           0.000           0.000           0.000           0.000           0.000           0.000           0.000           0.000           0.000  
G18  24411947.666   128285642.642        3425.468          39.250           0.000           0.000           0.000           0.000    24411953.980    99962853.475        2669.349          39.000           0.000           0.000           0.000           0.000           0.000           0.000           0.000           0.000    24411948.773    95797734.731        2558.108          45.500  
G20  20806783.663   109340382.750       -1268.499          48.000           0.000           0.000           0.000           0.000    20806782.783    85200297.562        -988.502          44.500           0.000           0.000           0.000           0.000           0.000           0.000           0.000           0.000           0.000           0.000           0.000           0.000  
G25  23315024.471   122521283.712       -3242.437          41.750           0.000           0.000           0.000           0.000    23315026.519    95471139.924       -2526.386          42.000           0.000           0.000           0.000           0.000           0.000           0.000           0.000           0.000    23315023.320    91493159.227       -2421.240          46.750  
G29  20773183.291   109163817.179        1198.055          48.250           0.000           0.000           0.000           0.000    20773181.239    85062700.269         933.574          46.750           0.000           0.000           0.000           0.000           0.000           0.000           0.000           0.000           0.000           0.000           0.000           0.000  
R07  22537939.279   120647348.824        4487.218          46.000           0.000           0.000           0.000           0.000    22537926.033    93836774.671        3489.984          45.250  
R12  22554146.586   120480200.892       -3170.276          50.750           0.000           0.000           0.000           0.000    22554138.948    93706793.643       -2465.783          47.250  
R22  19857394.831   106000120.719        1962.461          52.750           0.000           0.000           0.000           0.000    19857387.702    82444507.347        1526.302          52.500  
E02  27765683.193   145909648.643       -3168.738          37.250    27765684.481   108958510.420       -2365.892          40.000    27765683.940   111800902.016       -2427.441          40.250  
E04  26855988.970   141129193.294       -1153.108          40.250    26855988.487   105388698.507        -860.653          45.000    26855988.619   108137961.765        -883.076          45.000  
E05  27401685.339   143996841.850        3215.171          38.250    27401689.369   107530114.981        2401.528          40.750    27401689.039   110335246.108        2464.047          41.500  
E09  25642706.304   134753332.854        1495.378          43.250    25642705.855   100627485.975        1117.018          48.250    25642705.805   103252548.507        1146.267          49.000  
E15  27253563.489   143218444.771        2703.031          39.500    27253563.373   106948834.685        2019.068          41.250    27253563.782   109738813.004        2071.551          43.250  
E27  26340876.626   138422257.309        1054.121          42.250    26340875.603   103367254.167         787.665          44.250    26340876.091   106063801.924         808.124          45.250  
E30  25650147.077   134792426.164       -1741.288          42.500    25650145.544   100656680.477       -1299.892          48.000    25650145.608   103282507.637       -1333.793          48.000  
C02  38885905.919   202489117.592         133.503          39.500           0.000           0.000           0.000           0.000    38885887.781   156577355.612         103.133          43.750           0.000           0.000           0.000           0.000    38885891.718   164538934.084         108.283          41.750           0.000           0.000           0.000           0.000  
C03  39056053.295   203375120.608         105.591          41.000           0.000           0.000           0.000           0.000    39056036.863   157262475.523          81.648          44.750           0.000           0.000           0.000           0.000    39056038.925   165258882.670          85.691          42.250           0.000           0.000           0.000           0.000  
C05  39389087.584   205109310.577         141.918          39.750           0.000           0.000           0.000           0.000    39389071.185   158603463.923         109.705          44.500           0.000           0.000           0.000           0.000    39389073.763   166668061.296         115.508          42.500           0.000           0.000           0.000           0.000  
C07  40386965.717   210305531.727       -1507.411          38.000           0.000           0.000           0.000           0.000    40386950.474   162621514.629       -1165.389          40.250           0.000           0.000           0.000           0.000    40386949.100   170890397.071       -1224.786          38.250           0.000           0.000           0.000           0.000  
C08  35781423.977   186323265.201           4.773          47.250           0.000           0.000           0.000           0.000    35781404.584   144076889.383           3.707          50.500           0.000           0.000           0.000           0.000    35781405.117   151402836.307           3.894          48.500           0.000           0.000           0.000           0.000  
C10  39112883.607   203671041.595       -1462.417          40.250           0.000           0.000           0.000           0.000    39112869.664   157491315.943       -1130.834          42.750           0.000           0.000           0.000           0.000    39112868.163   165499343.395       -1188.415          39.250           0.000           0.000           0.000           0.000  
C11  22225060.393   115731722.333        1818.869          48.500           0.000           0.000           0.000           0.000    22225044.154    89491041.738        1406.514          52.250           0.000           0.000           0.000           0.000    22225044.003    94041434.688        1477.975          50.000           0.000           0.000           0.000           0.000  
C12  21787132.130   113451315.744       -1277.351          47.250           0.000           0.000           0.000           0.000    21787116.193    87727688.342        -987.755          52.250           0.000           0.000           0.000           0.000    21787116.731    92188420.097       -1038.004          53.000           0.000           0.000           0.000           0.000  
C13  35947073.717   187185847.562         290.222          49.750           0.000           0.000           0.000           0.000    35947061.882   144743921.976         224.408          49.750           0.000           0.000           0.000           0.000    35947061.532   152103779.703         235.900          48.500           0.000           0.000           0.000           0.000  
C21  23277751.818   121213362.957        2360.004          50.000           0.000           0.000           0.000           0.000           0.000           0.000           0.000           0.000           0.000           0.000           0.000           0.000    23277734.515    98495710.393        1917.673          51.250           0.000           0.000           0.000           0.000  
C22  23055990.067   120058593.817        -861.994          49.750           0.000           0.000           0.000           0.000           0.000           0.000           0.000           0.000           0.000           0.000           0.000           0.000    23055971.805    97557361.275        -700.409          51.000           0.000           0.000           0.000           0.000  
C23  25931489.795   135032072.066       -1544.588          43.000           0.000           0.000           0.000           0.000           0.000           0.000           0.000           0.000           0.000           0.000           0.000           0.000    25931470.531   109724536.111       -1255.179          43.000           0.000           0.000           0.000           0.000  
C34  21574194.912   112342502.926         513.482          51.250           0.000           0.000           0.000           0.000           0.000           0.000           0.000           0.000           0.000           0.000           0.000           0.000    21574182.007    91287424.344         417.212          52.250           0.000           0.000           0.000           0.000  
> 2023  9  8  1 50 40.0000000  0 29
G05  20420882.507   107312461.213        1114.979          49.000           0.000           0.000           0.000           0.000    20420880.961    83620092.949         868.553          48.250           0.000           0.000           0.000           0.000           0.000           0.000           0.000           0.000           0.000           0.000           0.000           0.000  
G11  22292119.586   117145877.976       -2639.080          45.750           0.000           0.000           0.000           0.000    22292119.999    91282503.311       -2056.429          42.500           0.000           0.000           0.000           0.000           0.000           0.000           0.000           0.000           0.000           0.000           0.000           0.000  
G18  24411296.120   128282218.240        3424.233          38.500           0.000           0.000           0.000           0.000    24411298.177    99960185.112        2668.516          40.000           0.000           0.000           0.000           0.000           0.000           0.000           0.000           0.000    24411297.039    95795177.570        2556.878          45.750  
G20  20807025.347   109341652.824       -1270.667          48.000           0.000           0.000           0.000           0.000    20807024.463    85201287.194        -990.129          44.750           0.000           0.000           0.000           0.000           0.000           0.000           0.000           0.000           0.000           0.000           0.000           0.000  
G25  23315641.729   122524527.373       -3244.063          41.250           0.000           0.000           0.000           0.000    23315643.818    95473667.502       -2528.157          42.250           0.000           0.000           0.000           0.000           0.000           0.000           0.000           0.000    23315640.566    91495581.466       -2422.542          46.500  
G29  20772955.605   109162620.682        1195.909          48.250           0.000           0.000           0.000           0.000    20772953.583    85061767.941         931.741          46.750           0.000           0.000           0.000           0.000           0.000           0.000           0.000           0.000           0.000           0.000           0.000           0.000  
R07  22537101.332   120642862.977        4485.346          46.000           0.000           0.000           0.000           0.000    22537088.086    93833285.666        3488.654          45.250  
R12  22554740.327   120483372.565       -3172.249          50.500           0.000           0.000           0.000           0.000    22554732.651    93709260.484       -2467.252          47.250  
R22  19857027.506   105998159.732        1960.443          52.750           0.000           0.000           0.000           0.000    19857020.358    82442982.141        1524.631          52.250  
E02  27766286.302   145912817.967       -3169.570          37.250    27766287.582   108960877.127       -2366.814          40.000    27766287.032   111803330.478       -2428.771          40.250  
E04  26856208.585   141130347.360       -1154.399          40.250    26856208.084   105389560.327        -862.206          44.750    26856208.252   108138846.063        -884.612          45.000  
E05  27401073.627   143993627.267        3214.344          38.250    27401077.648   107527714.512        2400.288          40.750    27401077.331   110332782.999        2462.924          41.500  
E09  25642421.906   134751838.354        1494.048          43.250    25642421.467   100626369.966        1115.683          48.250    25642421.418   103251403.393        1144.758          48.750  
E15  27253049.179   143215742.265        2702.199          39.250    27253049.161   106946816.616        2017.838          42.000    27253049.439   109736742.294        2070.405          43.500  
E27  26340676.158   138421204.000        1052.797          42.000    26340675.184   103366467.639         785.972          44.250    26340675.678   106062994.854         806.666          45.250  
E30  25650478.595   134794168.281       -1742.495          42.500    25650477.069   100657981.414       -1301.217          48.000    25650477.135   103283842.515       -1335.285          48.000  
C02  38885880.563   202488985.487         131.971          39.750           0.000           0.000           0.000           0.000    38885862.412   156577253.452         101.999          43.750           0.000           0.000           0.000           0.000    38885866.334   164538826.708         107.450          41.750           0.000           0.000           0.000           0.000  
C03  39056033.232   203375016.183         104.116          41.000           0.000           0.000           0.000           0.000    39056016.817   157262394.763          80.648          44.500           0.000           0.000           0.000           0.000    39056019.034          -0.000           0.000          42.250           0.000           0.000           0.000           0.000  
C05  39389060.527   205109169.751         140.555          39.750           0.000           0.000           0.000           0.000    39389044.157   158603355.016         108.749          44.750           0.000           0.000           0.000           0.000    39389046.732   166667946.843         114.385          42.750           0.000           0.000           0.000           0.000  
C07  40387255.381   210307040.123       -1508.641          38.000           0.000           0.000           0.000           0.000    40387240.165   162622681.028       -1166.725          40.250           0.000           0.000           0.000           0.000    40387238.793   170891622.763       -1226.044          38.000           0.000           0.000           0.000           0.000  
C08  35781423.282   186323261.656           3.142          47.500           0.000           0.000           0.000           0.000    35781403.907   144076886.638           2.467          50.500           0.000           0.000           0.000           0.000    35781404.428   151402833.422           2.687          48.250           0.000           0.000           0.000           0.000  
C10  39113164.697   203672505.222       -1463.854          40.500           0.000           0.000           0.000           0.000    39113150.746   157492447.683       -1131.772          42.500           0.000           0.000           0.000           0.000    39113149.224   165500532.699       -1189.571          39.250           0.000           0.000           0.000           0.000  
C11  22224711.351   115729904.791        1817.142          48.500           0.000           0.000           0.000           0.000    22224695.134    89489636.300        1405.173          52.250           0.000           0.000           0.000           0.000    22224694.970    94039957.795        1476.494          50.000           0.000           0.000           0.000           0.000  
C12  21787377.692   113452594.498       -1279.189          47.500           0.000           0.000           0.000           0.000    21787361.754    87728677.151        -989.174          52.500           0.000           0.000           0.000           0.000    21787362.316    92189459.185       -1039.463          53.250           0.000           0.000           0.000           0.000  
C13  35947018.235   187185558.672         288.456          49.750           0.000           0.000           0.000           0.000    35947006.415   144743698.582         223.168          49.750           0.000           0.000           0.000           0.000    35947006.054   152103544.952         234.480          48.500           0.000           0.000           0.000           0.000  
C21  23277298.887   121211004.424        2357.981          50.000           0.000           0.000           0.000           0.000           0.000           0.000           0.000           0.000           0.000           0.000           0.000           0.000    23277281.589    98493793.883        1916.198          51.250           0.000           0.000           0.000           0.000  
C22  23056155.896   120059457.319        -864.140          49.750           0.000           0.000           0.000           0.000           0.000           0.000           0.000           0.000           0.000           0.000           0.000           0.000    23056137.636    97558062.935        -702.102          51.000           0.000           0.000           0.000           0.000  
C23  25931786.732   135033618.202       -1546.750          43.500           0.000           0.000           0.000           0.000           0.000           0.000           0.000           0.000           0.000           0.000           0.000           0.000    25931767.594   109725792.424       -1256.604          42.750           0.000           0.000           0.000           0.000  
C34  21574096.590   112341990.931         511.487          51.250           0.000           0.000           0.000           0.000           0.000           0.000           0.000           0.000           0.000           0.000           0.000           0.000    21574083.694    91287008.302         415.686          52.250           0.000           0.000           0.000           0.000  
> 2023  9  8  1 50 41.0000000  0 29
G05  20420670.557   107311347.382        1113.633          49.000           0.000           0.000           0.000           0.000    20420669.022    83619225.002         867.866          48.250           0.000           0.000           0.000           0.000           0.000           0.000           0.000           0.000           0.000           0.000           0.000           0.000  
G11  22292621.972   117148517.994       -2639.867          45.750           0.000           0.000           0.000           0.000    22292622.394    91284560.474       -2057.044          42.500           0.000           0.000           0.000           0.000           0.000           0.000           0.000           0.000           0.000           0.000           0.000           0.000  
G18  24410644.903   128278795.080        3423.288          38.500           0.000           0.000           0.000           0.000    24410645.368    99957517.693        2667.661          40.000           0.000           0.000           0.000           0.000           0.000           0.000           0.000           0.000    24410645.543    95792621.283        2556.370          45.750  
G20  20807267.334   109342924.495       -1271.751          48.000           0.000           0.000           0.000           0.000    20807266.457    85202278.115        -990.939          44.750           0.000           0.000           0.000           0.000           0.000           0.000           0.000           0.000           0.000           0.000           0.000           0.000  
G25  23316259.260   122527772.445       -3244.912          41.250           0.000           0.000           0.000           0.000    23316261.358    95476196.093       -2528.549          42.250           0.000           0.000           0.000           0.000           0.000           0.000           0.000           0.000    23316258.068    91498004.711       -2423.157          46.500  
G29  20772728.235   109161425.831        1194.853          48.250           0.000           0.000           0.000           0.000    20772726.234    85060836.889         930.981          46.750           0.000           0.000           0.000           0.000           0.000           0.000           0.000           0.000           0.000           0.000           0.000           0.000  
R07  22536263.627   120638378.493        4484.564          46.000           0.000           0.000           0.000           0.000    22536250.399    93829797.745        3488.017          45.000  
R12  22555334.442   120486545.861       -3173.349          50.500           0.000           0.000           0.000           0.000    22555326.648    93711728.604       -2468.208          47.500  
R22  19856660.470   105996200.288        1959.449          53.000           0.000           0.000           0.000           0.000    19856653.295    82441458.117        1523.960          52.250  
E02  27766889.623   145915988.436       -3170.459          37.500    27766890.897   108963244.673       -2367.384          40.250    27766890.332   111805759.769       -2429.090          40.250  
E04  26856428.499   141131503.011       -1155.930          40.250    26856427.972   105390423.282        -862.899          45.000    26856428.174   108139731.537        -885.490          45.000  
E05  27400462.149   143990413.891        3213.372          38.250    27400466.147   107525314.904        2399.773          40.750    27400465.853   110330320.814        2462.192          41.500  
E09  25642137.804   134750345.419        1492.768          43.250    25642137.372   100625255.103        1114.850          48.250    25642137.320   103250259.447        1143.998          48.750  
E15  27252535.102   143213040.969        2701.282          39.250    27252535.132   106944799.378        2017.492          42.000    27252535.325   109734672.431        2070.020          43.500  
E27  26340475.998   138420152.293        1051.506          42.000    26340475.053   103365682.254         785.330          44.500    26340475.561   106062188.991         805.878          45.250  
E30  25650810.401   134795911.928       -1743.864          42.500    25650808.883   100659283.485       -1302.055          48.250    25650808.950   103285178.552       -1336.051          48.250  
C02  38885855.414   202488854.471         131.429          39.750           0.000           0.000           0.000           0.000    38885837.252   156577152.137         101.591          43.750           0.000           0.000           0.000           0.000    38885840.871          -0.000           0.000          41.750           0.000           0.000           0.000           0.000  
C03  39056013.373   203374912.833         103.708          41.000           0.000           0.000           0.000           0.000    39055996.984   157262314.864          80.122          44.500           0.000           0.000           0.000           0.000    39055999.161   165258713.841          84.076          42.250           0.000           0.000           0.000           0.000  
C05  39389033.675   205109029.991         140.080          40.000           0.000           0.000           0.000           0.000    39389017.335   158603246.942         108.269          45.000           0.000           0.000           0.000           0.000    39389019.914   166667833.299         113.742          43.000           0.000           0.000           0.000           0.000  
C07  40387545.263   210308549.644       -1509.339          38.000           0.000           0.000           0.000           0.000    40387530.067   162623848.276       -1167.110          40.250           0.000           0.000           0.000           0.000    40387528.701   170892849.380       -1226.619          38.000           0.000           0.000           0.000           0.000  
C08  35781422.810   186323259.277           2.544          47.250           0.000           0.000           0.000           0.000    35781403.458   144076884.806           1.958          50.500           0.000           0.000           0.000           0.000    35781403.965   151402831.495           2.062          48.250           0.000           0.000           0.000           0.000  
C10  39113446.008   203673969.997       -1464.681          40.250           0.000           0.000           0.000           0.000    39113432.057   157493580.349       -1132.527          42.500           0.000           0.000           0.000           0.000    39113430.506   165501722.936       -1190.063          39.250           0.000           0.000           0.000           0.000  
C11  22224362.578   115728088.642        1816.220          48.750           0.000           0.000           0.000           0.000    22224346.381    89488231.938        1404.441          52.250           0.000           0.000           0.000           0.000    22224346.200    94038482.014        1475.796          50.250           0.000           0.000           0.000           0.000  
C12  21787623.536   113453874.721       -1280.267          47.500           0.000           0.000           0.000           0.000    21787607.597    87729667.091        -989.917          52.250           0.000           0.000           0.000           0.000    21787608.183    92190499.462       -1040.318          53.250           0.000           0.000           0.000           0.000  
C13  35946962.973   187185270.932         287.897          49.750           0.000           0.000           0.000           0.000    35946951.170   144743476.086         222.671          49.750           0.000           0.000           0.000           0.000    35946950.801   152103311.151         233.922          48.500           0.000           0.000           0.000           0.000  
C21  23276846.245   121208647.404        2357.026          50.000           0.000           0.000           0.000           0.000           0.000           0.000           0.000           0.000           0.000           0.000           0.000           0.000    23276828.957    98491878.620        1915.248          51.250           0.000           0.000           0.000           0.000  
C22  23056322.037   120060322.456        -865.257          49.750           0.000           0.000           0.000           0.000           0.000           0.000           0.000           0.000           0.000           0.000           0.000           0.000    23056303.784    97558765.937        -703.097          51.250           0.000           0.000           0.000           0.000  
C23  25932083.940   135035165.806       -1547.605          43.750           0.000           0.000           0.000           0.000           0.000           0.000           0.000           0.000           0.000           0.000           0.000           0.000    25932064.834   109727050.005       -1257.593          42.750           0.000           0.000           0.000           0.000  
C34  21573998.555   112341480.429         510.571          51.250           0.000           0.000           0.000           0.000           0.000           0.000           0.000           0.000           0.000           0.000           0.000           0.000    21573985.669    91286593.482         414.859          52.250           0.000           0.000           0.000           0.000  
> 2023  9  8  1 50 42.0000000  0 29
G05  20420458.987   107310235.556        1110.945          49.000           0.000           0.000           0.000           0.000    20420457.473    83618358.657         865.619          48.250           0.000           0.000           0.000           0.000           0.000           0.000           0.000           0.000           0.000           0.000           0.000           0.000  
G11  22293124.666   117151159.644       -2642.404          45.750           0.000           0.000           0.000           0.000    22293125.094    91286618.897       -2059.022          42.500           0.000           0.000           0.000           0.000           0.000           0.000           0.000           0.000           0.000           0.000           0.000           0.000  
G18  24409993.807   128275373.316        3421.064          39.000           0.000           0.000           0.000           0.000    24409993.365    99954851.421        2665.678          39.000           0.000           0.000           0.000           0.000           0.000           0.000           0.000           0.000    24409994.336    95790066.087        2554.738          45.000  
G20  20807509.681   109344198.055       -1274.422          48.250           0.000           0.000           0.000           0.000    20807508.807    85203270.490        -993.045          44.750           0.000           0.000           0.000           0.000           0.000           0.000           0.000           0.000           0.000           0.000           0.000           0.000  
G25  23316877.103   122531019.153       -3247.438          41.250           0.000           0.000           0.000           0.000    23316879.216    95478726.014       -2530.471          42.500           0.000           0.000           0.000           0.000           0.000           0.000           0.000           0.000    23316875.889    91500429.207       -2424.923          46.250  
G29  20772501.235   109160232.926        1192.065          48.250           0.000           0.000           0.000           0.000    20772499.246    85059907.338         928.847          46.750           0.000           0.000           0.000           0.000           0.000           0.000           0.000           0.000           0.000           0.000           0.000           0.000  
R07  22535426.212   120633895.668        4482.139          45.500           0.000           0.000           0.000           0.000    22535413.013    93826311.092        3486.056          45.000  
R12  22555928.920   120489721.055       -3176.009          50.500           0.000           0.000           0.000           0.000    22555921.012    93714198.192       -2470.136          47.750  
R22  19856293.778   105994242.679        1956.828          52.750           0.000           0.000           0.000           0.000    19856286.571    82439935.536        1521.960          52.500  
E02  27767493.208   145919160.296       -3172.677          37.500    27767494.480   108965613.266       -2369.228          41.500    27767493.902   111808190.150       -2430.962          41.000  
E04  26856648.748   141132660.420       -1158.366          39.750    26856648.208   105391287.596        -864.894          45.250    26856648.440   108140618.403        -887.513          45.250  
E05  27399850.942   143987201.939        3211.277          37.000    27399854.930   107522916.413        2397.952          40.750    27399854.646   110327859.717        2460.683          41.500  
E09  25641854.044   134748854.289        1490.192          43.000    25641853.621   100624141.596        1112.900          48.000    25641853.567   103249116.885        1141.992          48.750  
E15  27252021.289   143210341.066        2699.181          38.750    27252021.376   106942783.220        2015.670          40.750    27252021.494   109732603.676        2068.204          43.750  
E27  26340276.193   138419102.406        1049.003          41.750    26340275.275   103364898.252         783.631          44.500    26340275.793   106061384.544         803.855          45.750  
E30  25651142.536   134797657.316       -1746.345          42.500    25651141.031   100660586.867       -1304.022          48.250    25651141.093   103286515.916       -1338.034          48.000  
C02  38885830.526   202488724.827         129.127          39.750           0.000           0.000           0.000           0.000    38885812.351   156577051.867          99.937          44.000           0.000           0.000           0.000           0.000    38885815.924   164538612.897         104.947          41.750           0.000           0.000           0.000           0.000  
C03  39055993.770   203374810.819         101.679          40.250           0.000           0.000           0.000           0.000    39055977.410   157262236.005          78.468          44.500           0.000           0.000           0.000           0.000    39055979.584   165258630.978          82.338          42.000           0.000           0.000           0.000           0.000  
C05  39389007.084   205108891.579         138.029          40.000           0.000           0.000           0.000           0.000    39388990.777   158603139.927         106.570          45.000           0.000           0.000           0.000           0.000    39388993.356   166667720.851         111.853          43.250           0.000           0.000           0.000           0.000  
C07  40387835.407   210310060.532       -1511.318          37.750           0.000           0.000           0.000           0.000    40387820.230   162625016.577       -1168.737          40.250           0.000           0.000           0.000           0.000    40387818.873   170894077.115       -1228.385          38.250           0.000           0.000           0.000           0.000  
C08  35781422.612   186323258.330           0.325          47.500           0.000           0.000           0.000           0.000    35781403.280   144076884.069           0.254          50.500           0.000           0.000           0.000           0.000    35781403.775   151402830.723           0.251          48.250           0.000           0.000           0.000           0.000  
C10  39113727.591   203675436.185       -1466.815          40.000           0.000           0.000           0.000           0.000    39113713.632   157494714.091       -1134.209          42.500           0.000           0.000           0.000           0.000    39113712.062   165502914.324       -1191.818          39.500           0.000           0.000           0.000           0.000  
C11  22224014.119   115726274.131        1813.750          48.500           0.000           0.000           0.000           0.000    22223997.943    89486828.851        1402.479          52.250           0.000           0.000           0.000           0.000    22223997.748    94037007.576        1473.845          50.250           0.000           0.000           0.000           0.000  
C12  21787869.708   113455156.655       -1282.732          47.500           0.000           0.000           0.000           0.000    21787853.770    87730658.366        -991.884          52.500           0.000           0.000           0.000           0.000    21787854.382    92191541.144       -1042.324          53.250           0.000           0.000           0.000           0.000  
C13  35946907.990   187184984.644         285.628          49.750           0.000           0.000           0.000           0.000    35946896.205   144743254.711         220.888          49.750           0.000           0.000           0.000           0.000    35946895.824   152103078.514         232.139          48.500           0.000           0.000           0.000           0.000  
C21  23276393.947   121206292.185        2354.349          50.000           0.000           0.000           0.000           0.000           0.000           0.000           0.000           0.000           0.000           0.000           0.000           0.000    23276376.665    98489964.800        1913.102          51.000           0.000           0.